b'$GPGGA,161507.40,5057.2235114,N,00138.4864264,W,4,09,1.2,128.11,M,0.0,M,0.4,0050*54\r\n'
b'$GPGGA,161507.50,5057.2235114,N,00138.4864270,W,4,09,1.2,128.11,M,0.0,M,0.5,0050*51\r\n'
b'$GPGGA,161507.60,5057.2235120,N,00138.4864264,W,4,09,1.2,128.11,M,0.0,M,0.6,0050*53\r\n'
b'$GPZDA,161507.60,11,08,2017,,*68\r\n'
b'$GPGSA,A,3,14,17,03,28,26,25,08,22,11,01,32,,1.5,1.2,0.8*3C\r\n'
b'$GPGGA,161507.70,5057.2235108,N,00138.4864270,W,4,09,1.2,128.11,M,0.0,M,0.7,0050*5C\r\n'
b'$GPGGA,161507.80,5057.2235114,N,00138.4864258,W,4,09,1.2,128.11,M,0.0,M,0.8,0050*5B\r\n'
b'$GPGGA,161507.90,5057.2235114,N,00138.4864258,W,4,09,1.2,128.11,M,0.0,M,0.9,0050*5B\r\n'
b'$GPGGA,161508.00,5057.2235114,N,00138.4864264,W,4,09,1.2,128.11,M,0.0,M,1.0,0050*5A\r\n'
b'$GPGGA,161508.10,5057.2235126,N,00138.4864240,W,4,09,1.2,128.11,M,0.0,M,0.1,0050*5C\r\n'
b'$GPGGA,161508.20,5057.2235132,N,00138.4864240,W,4,09,1.2,128.11,M,0.0,M,0.2,0050*59\r\n'
b'$GPGGA,161508.30,5057.2235126,N,00138.4864252,W,4,09,1.2,128.11,M,0.0,M,0.3,0050*5F\r\n'
b'$GPGGA,161508.40,5057.2235132,N,00138.4864252,W,4,09,1.2,128.11,M,0.0,M,0.4,0050*5A\r\n'
b'$GPGGA,161508.50,5057.2235126,N,00138.4864252,W,4,09,1.2,128.11,M,0.0,M,0.5,0050*5F\r\n'
b'$GPGGA,161508.60,5057.2235132,N,00138.4864252,W,4,09,1.2,128.11,M,0.0,M,0.6,0050*5A\r\n'
b'$GPZDA,161508.60,11,08,2017,,*67\r\n'
b'$GPGSA,A,3,14,17,03,28,26,25,24,08,22,11,01,32,1.5,1.2,0.8*3A\r\n'
b'$GPGGA,161508.70,5057.2235132,N,00138.4864258,W,4,09,1.2,128.11,M,0.0,M,0.7,0050*50\r\n'
b'$GPGGA,161508.80,5057.2235132,N,00138.4864258,W,4,09,1.2,128.11,M,0.0,M,0.8,0050*50\r\n'
b'$GPGGA,161508.90,5057.2235126,N,00138.4864246,W,4,09,1.2,128.11,M,0.0,M,0.9,0050*5A\r\n'
b'$GPGGA,161509.00,5057.2235126,N,00138.4864246,W,4,09,1.2,128.12,M,0.0,M,1.0,0050*59\r\n'
b'$GPGGA,161509.10,5057.2235120,N,00138.4864258,W,4,09,1.2,128.11,M,0.0,M,0.1,0050*52\r\n'
b'$GPGGA,161509.20,5057.2235108,N,00138.4864246,W,4,09,1.2,128.11,M,0.0,M,0.2,0050*57\r\n'
b'$GPGGA,161509.30,5057.2235102,N,00138.4864240,W,4,09,1.2,128.11,M,0.0,M,0.3,0050*5B\r\n'
b'$GPGGA,161509.40,5057.2235114,N,00138.4864240,W,4,09,1.2,128.11,M,0.0,M,0.4,0050*5C\r\n'
b'$GPGGA,161509.50,5057.2235120,N,00138.4864252,W,4,09,1.2,128.11,M,0.0,M,0.5,0050*58\r\n'
b'$GPGGA,161509.60,5057.2235120,N,00138.4864246,W,4,09,1.2,128.12,M,0.0,M,0.6,0050*5E\r\n'
b'$GPZDA,161509.60,11,08,2017,,*66\r\n'
b'$GPGSA,A,3,14,17,03,28,26,25,24,08,22,11,01,32,1.5,1.2,0.8*3A\r\n'
b'$GPGGA,161509.70,5057.2235120,N,00138.4864258,W,4,09,1.2,128.11,M,0.0,M,0.7,0050*52\r\n'
b'$GPGGA,161509.80,5057.2235126,N,00138.4864264,W,4,09,1.2,128.11,M,0.0,M,0.8,0050*5B\r\n'
b'$GPGGA,161509.90,5057.2235126,N,00138.4864270,W,4,09,1.2,128.11,M,0.0,M,0.9,0050*5E\r\n'
b'$GPGGA,161510.00,5057.2235132,N,00138.4864270,W,4,09,1.2,128.12,M,0.0,M,1.0,0050*51\r\n'
b'$GPGGA,161510.10,5057.2235114,N,00138.4864228,W,4,09,1.2,128.11,M,0.0,M,0.1,0050*5A\r\n'
b'$GPGGA,161510.20,5057.2235102,N,00138.4864228,W,4,09,1.2,128.11,M,0.0,M,0.2,0050*5D\r\n'
b'$GPGGA,161510.30,5057.2235102,N,00138.4864222,W,4,09,1.2,128.12,M,0.0,M,0.3,0050*54\r\n'
b'$GPGGA,161510.40,5057.2235108,N,00138.4864228,W,4,09,1.2,128.12,M,0.0,M,0.4,0050*54\r\n'
b'$GPGGA,161510.50,5057.2235102,N,00138.4864234,W,4,09,1.2,128.12,M,0.0,M,0.5,0050*53\r\n'
b'$GPGGA,161510.60,5057.2235102,N,00138.4864222,W,4,09,1.2,128.12,M,0.0,M,0.6,0050*54\r\n'
b'$GPZDA,161510.60,11,08,2017,,*6E\r\n'
b'$GPGSA,A,3,14,17,03,28,26,24,08,22,11,01,32,,1.5,1.2,0.8*3D\r\n'
b'$GPGGA,161510.70,5057.2235102,N,00138.4864228,W,4,09,1.2,128.12,M,0.0,M,0.7,0050*5E\r\n'
b'$GPGGA,161510.80,5057.2235108,N,00138.4864234,W,4,09,1.2,128.12,M,0.0,M,0.8,0050*59\r\n'
b'$GPGGA,161510.90,5057.2235108,N,00138.4864240,W,4,09,1.2,128.12,M,0.0,M,0.9,0050*5A\r\n'
b'$GPGGA,161511.00,5057.2235120,N,00138.4864252,W,4,09,1.2,128.12,M,0.0,M,1.0,0050*53\r\n'
b'$GPGGA,161511.10,5057.2235126,N,00138.4864258,W,4,09,1.2,128.11,M,0.0,M,0.1,0050*5D\r\n'
b'$GPGGA,161511.20,5057.2235120,N,00138.4864252,W,4,09,1.2,128.11,M,0.0,M,0.2,0050*51\r\n'
b'$GPGGA,161511.30,5057.2235126,N,00138.4864252,W,4,09,1.2,128.11,M,0.0,M,0.3,0050*57\r\n'
b'$GPGGA,161511.40,5057.2235114,N,00138.4864246,W,4,09,1.2,128.11,M,0.0,M,0.4,0050*53\r\n'
b'$GPGGA,161511.50,5057.2235120,N,00138.4864252,W,4,09,1.2,128.11,M,0.0,M,0.5,0050*51\r\n'
b'$GPGGA,161511.60,5057.2235120,N,00138.4864252,W,4,09,1.2,128.12,M,0.0,M,0.6,0050*52\r\n'
b'$GPZDA,161511.60,11,08,2017,,*6F\r\n'
b'$GPGSA,A,3,14,17,03,28,27,24,08,22,11,01,32,,1.5,1.2,0.8*3C\r\n'
b'$GPGGA,161511.70,5057.2235120,N,00138.4864246,W,4,09,1.2,128.11,M,0.0,M,0.7,0050*54\r\n'
b'$GPGGA,161511.80,5057.2235120,N,00138.4864252,W,4,09,1.2,128.11,M,0.0,M,0.8,0050*51\r\n'
b'$GPGGA,161511.90,5057.2235114,N,00138.4864246,W,4,09,1.2,128.11,M,0.0,M,0.9,0050*53\r\n'
b'$GPGGA,161512.00,5057.2235114,N,00138.4864246,W,4,09,1.2,128.11,M,0.0,M,1.0,0050*51\r\n'
b'$GPGGA,161512.10,5057.2235114,N,00138.4864258,W,4,09,1.2,128.11,M,0.0,M,0.1,0050*5F\r\n'
b'$GPGGA,161512.20,5057.2235120,N,00138.4864258,W,4,09,1.2,128.11,M,0.0,M,0.2,0050*58\r\n'
b'$GPGGA,161512.30,5057.2235120,N,00138.4864264,W,4,09,1.2,128.11,M,0.0,M,0.3,0050*57\r\n'
b'$GPGGA,161512.40,5057.2235126,N,00138.4864264,W,4,09,1.2,128.11,M,0.0,M,0.4,0050*51\r\n'
b'$GPGGA,161512.50,5057.2235120,N,00138.4864276,W,4,09,1.2,128.11,M,0.0,M,0.5,0050*54\r\n'
b'$GPGGA,161512.60,5057.2235132,N,00138.4864288,W,4,09,1.2,128.11,M,0.0,M,0.6,0050*56\r\n'
b'$GPZDA,161512.60,11,08,2017,,*6C\r\n'
b'$GPGSA,A,3,14,17,03,28,06,27,08,22,11,01,32,,1.5,1.2,0.8*3C\r\n'
b'$GPGGA,161512.70,5057.2235132,N,00138.4864282,W,4,09,1.2,128.11,M,0.0,M,0.7,0050*5C\r\n'
b'$GPGGA,161512.80,5057.2235126,N,00138.4864276,W,4,09,1.2,128.11,M,0.0,M,0.8,0050*52\r\n'
b'$GPGGA,161512.90,5057.2235132,N,00138.4864294,W,4,09,1.2,128.11,M,0.0,M,0.9,0050*5B\r\n'
b'$GPGGA,161513.00,5057.2235132,N,00138.4864276,W,4,09,1.2,128.11,M,0.0,M,1.0,0050*57\r\n'
b'$GPGGA,161513.10,5057.2235132,N,00138.4864276,W,4,09,1.2,128.11,M,0.0,M,0.1,0050*56\r\n'
b'$GPGGA,161513.20,5057.2235132,N,00138.4864270,W,4,09,1.2,128.11,M,0.0,M,0.2,0050*50\r\n'
b'$GPGGA,161513.30,5057.2235144,N,00138.4864282,W,4,09,1.2,128.10,M,0.0,M,0.3,0050*5D\r\n'
b'$GPGGA,161513.40,5057.2235138,N,00138.4864276,W,4,09,1.2,128.10,M,0.0,M,0.4,0050*5D\r\n'
b'$GPGGA,161513.50,5057.2235138,N,00138.4864270,W,4,09,1.2,128.11,M,0.0,M,0.5,0050*5A\r\n'
b'$GPGGA,161513.60,5057.2235144,N,00138.4864282,W,4,09,1.2,128.11,M,0.0,M,0.6,0050*5C\r\n'
b'$GPZDA,161513.60,11,08,2017,,*6D\r\n'
b'$GPGSA,A,3,14,17,03,28,06,27,07,08,22,11,01,32,1.5,1.2,0.8*3B\r\n'
b'$GPGGA,161513.70,5057.2235138,N,00138.4864270,W,4,09,1.2,128.11,M,0.0,M,0.7,0050*5A\r\n'
b'$GPGGA,161513.80,5057.2235144,N,00138.4864282,W,4,09,1.2,128.11,M,0.0,M,0.8,0050*5C\r\n'
b'$GPGGA,161513.90,5057.2235144,N,00138.4864288,W,4,09,1.2,128.11,M,0.0,M,0.9,0050*56\r\n'
b'$GPGGA,161514.00,5057.2235132,N,00138.4864276,W,4,09,1.2,128.11,M,0.0,M,1.0,0050*50\r\n'
b'$GPGGA,161514.10,5057.2235126,N,00138.4864246,W,4,09,1.2,128.11,M,0.0,M,0.1,0050*57\r\n'
b'$GPGGA,161514.20,5057.2235126,N,00138.4864246,W,4,09,1.2,128.11,M,0.0,M,0.2,0050*57\r\n'
b'$GPGGA,161514.30,5057.2235132,N,00138.4864258,W,4,09,1.2,128.11,M,0.0,M,0.3,0050*5D\r\n'
b'$GPGGA,161514.40,5057.2235126,N,00138.4864252,W,4,09,1.2,128.11,M,0.0,M,0.4,0050*52\r\n'
b'$GPGGA,161514.50,5057.2235144,N,00138.4864264,W,4,09,1.2,128.11,M,0.0,M,0.5,0050*53\r\n'
b'$GPGGA,161514.60,5057.2235138,N,00138.4864264,W,4,09,1.2,128.11,M,0.0,M,0.6,0050*58\r\n'
b'$GPZDA,161514.60,11,08,2017,,*6A\r\n'
b'$GPGSA,A,3,14,17,03,28,06,07,08,22,11,01,32,29,1.5,1.2,0.8*35\r\n'
b'$GPGGA,161514.70,5057.2235132,N,00138.4864264,W,4,09,1.2,128.11,M,0.0,M,0.7,0050*52\r\n'
b'$GPGGA,161514.80,5057.2235138,N,00138.4864264,W,4,09,1.2,128.11,M,0.0,M,0.8,0050*58\r\n'
b'$GPGGA,161514.90,5057.2235138,N,00138.4864264,W,4,09,1.2,128.11,M,0.0,M,0.9,0050*58\r\n'
b'$GPGGA,161515.00,5057.2235132,N,00138.4864264,W,4,09,1.2,128.11,M,0.0,M,1.0,0050*52\r\n'
b'$GPGGA,161515.10,5057.2235126,N,00138.4864270,W,4,09,1.2,128.10,M,0.0,M,0.1,0050*52\r\n'
b'$GPGGA,161515.20,5057.2235126,N,00138.4864264,W,4,09,1.2,128.11,M,0.0,M,0.2,0050*56\r\n'
b'$GPGGA,161515.30,5057.2235126,N,00138.4864258,W,4,09,1.2,128.11,M,0.0,M,0.3,0050*59\r\n'
b'$GPGGA,161515.40,5057.2235144,N,00138.4864282,W,4,09,1.2,128.10,M,0.0,M,0.4,0050*5B\r\n'
b'$GPGGA,161515.50,5057.2235138,N,00138.4864264,W,4,09,1.2,128.11,M,0.0,M,0.5,0050*59\r\n'
b'$GPGGA,161515.60,5057.2235126,N,00138.4864258,W,4,09,1.2,128.11,M,0.0,M,0.6,0050*59\r\n'
b'$GPZDA,161515.60,11,08,2017,,*6B\r\n'
b'$GPGSA,A,3,14,17,03,28,20,07,08,22,11,01,32,29,1.5,1.2,0.8*31\r\n'
b'$GPGGA,161515.70,5057.2235132,N,00138.4864276,W,4,09,1.2,128.11,M,0.0,M,0.7,0050*50\r\n'
b'$GPGGA,161515.80,5057.2235132,N,00138.4864282,W,4,09,1.2,128.11,M,0.0,M,0.8,0050*5B\r\n'
b'$GPGGA,161515.90,5057.2235138,N,00138.4864282,W,4,09,1.2,128.11,M,0.0,M,0.9,0050*51\r\n'
b'$GPGGA,161516.00,5057.2235132,N,00138.4864270,W,4,09,1.2,128.11,M,0.0,M,1.0,0050*54\r\n'
b'$GPGGA,161516.10,5057.2235138,N,00138.4864270,W,4,09,1.2,128.10,M,0.0,M,0.1,0050*5E\r\n'
b'$GPGGA,161516.20,5057.2235132,N,00138.4864258,W,4,09,1.2,128.11,M,0.0,M,0.2,0050*5F\r\n'
b'$GPGGA,161516.30,5057.2235138,N,00138.4864282,W,4,09,1.2,128.11,M,0.0,M,0.3,0050*52\r\n'
b'$GPGGA,161516.40,5057.2235132,N,00138.4864264,W,4,09,1.2,128.11,M,0.0,M,0.4,0050*50\r\n'
b'$GPGGA,161516.50,5057.2235132,N,00138.4864282,W,4,09,1.2,128.11,M,0.0,M,0.5,0050*58\r\n'
b'$GPGGA,161516.60,5057.2235132,N,00138.4864270,W,4,09,1.2,128.11,M,0.0,M,0.6,0050*55\r\n'
b'$GPZDA,161516.60,11,08,2017,,*68\r\n'
b'$GPGSA,A,3,14,17,03,28,20,21,04,08,22,11,01,32,1.5,1.2,0.8*3A\r\n'
b'$GPGGA,161516.70,5057.2235132,N,00138.4864270,W,4,09,1.2,128.11,M,0.0,M,0.7,0050*55\r\n'
b'$GPGGA,161516.80,5057.2235126,N,00138.4864270,W,4,09,1.2,128.11,M,0.0,M,0.8,0050*50\r\n'
b'$GPGGA,161516.90,5057.2235120,N,00138.4864264,W,4,09,1.2,128.11,M,0.0,M,0.9,0050*53\r\n'
b'$GPGGA,161517.00,5057.2235120,N,00138.4864276,W,4,09,1.2,128.11,M,0.0,M,1.0,0050*50\r\n'
b'$GPGGA,161517.10,5057.2235132,N,00138.4864270,W,4,09,1.2,128.11,M,0.0,M,0.1,0050*54\r\n'
b'$GPGGA,161517.20,5057.2235132,N,00138.4864270,W,4,09,1.2,128.11,M,0.0,M,0.2,0050*54\r\n'
b'$GPGGA,161517.30,5057.2235132,N,00138.4864282,W,4,09,1.2,128.11,M,0.0,M,0.3,0050*59\r\n'
b'$GPGGA,161517.40,5057.2235132,N,00138.4864270,W,4,09,1.2,128.11,M,0.0,M,0.4,0050*54\r\n'
b'$GPGGA,161517.50,5057.2235126,N,00138.4864270,W,4,09,1.2,128.11,M,0.0,M,0.5,0050*51\r\n'
b'$GPGGA,161517.60,5057.2235132,N,00138.4864282,W,4,09,1.2,128.11,M,0.0,M,0.6,0050*59\r\n'
b'$GPZDA,161517.60,11,08,2017,,*69\r\n'
b'$GPGSA,A,3,14,17,03,28,20,21,04,08,22,11,01,32,1.5,1.2,0.8*3A\r\n'
b'$GPGGA,161517.70,5057.2235126,N,00138.4864276,W,4,09,1.2,128.11,M,0.0,M,0.7,0050*57\r\n'
b'$GPGGA,161517.80,5057.2235126,N,00138.4864276,W,4,09,1.2,128.11,M,0.0,M,0.8,0050*57\r\n'
b'$GPGGA,161517.90,5057.2235132,N,00138.4864270,W,4,09,1.2,128.11,M,0.0,M,0.9,0050*54\r\n'
b'$GPGGA,161518.00,5057.2235132,N,00138.4864282,W,4,09,1.2,128.11,M,0.0,M,1.0,0050*57\r\n'
b'$GPGGA,161518.10,5057.2235114,N,00138.4864252,W,4,09,1.2,128.11,M,0.0,M,0.1,0050*5F\r\n'
b'$GPGGA,161518.20,5057.2235138,N,00138.4864282,W,4,09,1.2,128.10,M,0.0,M,0.2,0050*5D\r\n'
b'$GPGGA,161518.30,5057.2235126,N,00138.4864270,W,4,09,1.2,128.11,M,0.0,M,0.3,0050*5E\r\n'
b'$GPGGA,161518.40,5057.2235132,N,00138.4864276,W,4,09,1.2,128.10,M,0.0,M,0.4,0050*5C\r\n'
b'$GPGGA,161518.50,5057.2235126,N,00138.4864270,W,4,09,1.2,128.11,M,0.0,M,0.5,0050*5E\r\n'
b'$GPGGA,161518.60,5057.2235132,N,00138.4864282,W,4,09,1.2,128.11,M,0.0,M,0.6,0050*56\r\n'
b'$GPZDA,161518.60,11,08,2017,,*66\r\n'
b'$GPGSA,A,3,14,17,03,28,23,21,04,08,22,11,01,32,1.5,1.2,0.8*39\r\n'
b'$GPGGA,161518.70,5057.2235126,N,00138.4864276,W,4,09,1.2,128.11,M,0.0,M,0.7,0050*58\r\n'
b'$GPGGA,161518.80,5057.2235132,N,00138.4864288,W,4,09,1.2,128.11,M,0.0,M,0.8,0050*5C\r\n'
b'$GPGGA,161518.90,5057.2235138,N,00138.4864288,W,4,09,1.2,128.11,M,0.0,M,0.9,0050*56\r\n'
b'$GPGGA,161519.00,5057.2235138,N,00138.4864288,W,4,09,1.2,128.11,M,0.0,M,1.0,0050*56\r\n'
b'$GPGGA,161519.10,5057.2235138,N,00138.4864276,W,4,09,1.2,128.10,M,0.0,M,0.1,0050*57\r\n'
b'$GPGGA,161519.20,5057.2235144,N,00138.4864282,W,4,09,1.2,128.10,M,0.0,M,0.2,0050*57\r\n'
b'$GPGGA,161519.30,5057.2235132,N,00138.4864276,W,4,09,1.2,128.10,M,0.0,M,0.3,0050*5D\r\n'
b'$GPGGA,161519.40,5057.2235138,N,00138.4864282,W,4,09,1.2,128.10,M,0.0,M,0.4,0050*5C\r\n'
b'$GPGGA,161519.50,5057.2235132,N,00138.4864270,W,4,09,1.2,128.10,M,0.0,M,0.5,0050*5B\r\n'
b'$GPGGA,161519.60,5057.2235126,N,00138.4864270,W,4,09,1.2,128.11,M,0.0,M,0.6,0050*5F\r\n'
b'$GPZDA,161519.60,11,08,2017,,*67\r\n'
b'$GPGSA,A,3,14,17,03,28,23,05,04,08,22,11,01,32,1.5,1.2,0.8*3F\r\n'
b'$GPGGA,161519.70,5057.2235120,N,00138.4864258,W,4,09,1.2,128.11,M,0.0,M,0.7,0050*53\r\n'
b'$GPGGA,161519.80,5057.2235126,N,00138.4864270,W,4,09,1.2,128.11,M,0.0,M,0.8,0050*5F\r\n'
b'$GPGGA,161519.90,5057.2235126,N,00138.4864270,W,4,09,1.2,128.11,M,0.0,M,0.9,0050*5F\r\n'
b'$GPGGA,161520.00,5057.2235126,N,00138.4864270,W,4,09,1.2,128.11,M,0.0,M,1.0,0050*54\r\n'
b'$GPGGA,161520.10,5057.2235126,N,00138.4864258,W,4,09,1.2,128.11,M,0.0,M,0.1,0050*5F\r\n'
b'$GPGGA,161520.20,5057.2235120,N,00138.4864258,W,4,09,1.2,128.11,M,0.0,M,0.2,0050*59\r\n'
b'$GPGGA,161520.30,5057.2235120,N,00138.4864252,W,4,09,1.2,128.11,M,0.0,M,0.3,0050*53\r\n'
b'$GPGGA,161520.40,5057.2235120,N,00138.4864246,W,4,09,1.2,128.11,M,0.0,M,0.4,0050*56\r\n'
b'$GPGGA,161520.50,5057.2235114,N,00138.4864246,W,4,09,1.2,128.11,M,0.0,M,0.5,0050*51\r\n'
b'$GPGGA,161520.60,5057.2235126,N,00138.4864252,W,4,09,1.2,128.11,M,0.0,M,0.6,0050*55\r\n'
b'$GPZDA,161520.60,11,08,2017,,*6D\r\n'
b'$GPGSA,A,3,14,17,03,28,23,05,09,08,22,11,01,32,1.5,1.2,0.8*32\r\n'
b'$GPGGA,161520.70,5057.2235120,N,00138.4864258,W,4,09,1.2,128.11,M,0.0,M,0.7,0050*59\r\n'
b'$GPGGA,161520.80,5057.2235126,N,00138.4864258,W,4,09,1.2,128.11,M,0.0,M,0.8,0050*5F\r\n'
b'$GPGGA,161520.90,5057.2235126,N,00138.4864258,W,4,09,1.2,128.11,M,0.0,M,0.9,0050*5F\r\n'
b'$GPGGA,161521.00,5057.2235120,N,00138.4864258,W,4,09,1.2,128.11,M,0.0,M,1.0,0050*59\r\n'
b'$GPGGA,161521.10,5057.2235108,N,00138.4864210,W,4,09,1.2,128.12,M,0.0,M,0.1,0050*5D\r\n'
b'$GPGGA,161521.20,5057.2235108,N,00138.4864210,W,4,09,1.2,128.12,M,0.0,M,0.2,0050*5D\r\n'
b'$GPGGA,161521.30,5057.2235114,N,00138.4864216,W,4,09,1.2,128.12,M,0.0,M,0.3,0050*56\r\n'
b'$GPGGA,161521.40,5057.2235114,N,00138.4864204,W,4,09,1.2,128.13,M,0.0,M,0.4,0050*54\r\n'
b'$GPGGA,161521.50,5057.2235114,N,00138.4864216,W,4,09,1.2,128.12,M,0.0,M,0.5,0050*56\r\n'
b'$GPGGA,161521.60,5057.2235120,N,00138.4864216,W,4,09,1.2,128.12,M,0.0,M,0.6,0050*51\r\n'
b'$GPZDA,161521.60,11,08,2017,,*6C\r\n'
b'$GPGSA,A,3,14,17,03,28,16,05,09,08,22,11,01,32,1.5,1.2,0.8*34\r\n'
b'$GPGGA,161521.70,5057.2235108,N,00138.4864192,W,4,09,1.2,128.13,M,0.0,M,0.7,0050*55\r\n'
b'$GPGGA,161521.80,5057.2235120,N,00138.4864210,W,4,09,1.2,128.13,M,0.0,M,0.8,0050*56\r\n'
b'$GPGGA,161521.90,5057.2235126,N,00138.4864222,W,4,09,1.2,128.13,M,0.0,M,0.9,0050*51\r\n'
b'$GPGGA,161522.00,5057.2235126,N,00138.4864228,W,4,09,1.2,128.13,M,0.0,M,1.0,0050*59\r\n'
b'$GPGGA,161522.10,5057.2235114,N,00138.4864198,W,4,09,1.2,128.12,M,0.0,M,0.1,0050*50\r\n'
b'$GPGGA,161522.20,5057.2235126,N,00138.4864216,W,4,09,1.2,128.12,M,0.0,M,0.2,0050*54\r\n'
b'$GPGGA,161522.30,5057.2235108,N,00138.4864192,W,4,09,1.2,128.12,M,0.0,M,0.3,0050*57\r\n'
b'$GPGGA,161522.40,5057.2235114,N,00138.4864204,W,4,09,1.2,128.12,M,0.0,M,0.4,0050*56\r\n'
b'$GPGGA,161522.50,5057.2235114,N,00138.4864210,W,4,09,1.2,128.12,M,0.0,M,0.5,0050*53\r\n'
b'$GPGGA,161522.60,5057.2235120,N,00138.4864216,W,4,09,1.2,128.12,M,0.0,M,0.6,0050*52\r\n'
b'$GPZDA,161522.60,11,08,2017,,*6F\r\n'
b'$GPGSA,A,3,14,17,03,28,16,05,09,08,22,11,01,32,1.5,1.2,0.8*34\r\n'
b'$GPGGA,161522.70,5057.2235120,N,00138.4864222,W,4,09,1.2,128.12,M,0.0,M,0.7,0050*55\r\n'
b'$GPGGA,161522.80,5057.2235108,N,00138.4864204,W,4,09,1.2,128.12,M,0.0,M,0.8,0050*5B\r\n'
b'$GPGGA,161522.90,5057.2235120,N,00138.4864216,W,4,09,1.2,128.12,M,0.0,M,0.9,0050*52\r\n'
b'$GPGGA,161523.00,5057.2235114,N,00138.4864210,W,4,09,1.2,128.12,M,0.0,M,1.0,0050*53\r\n'
b'$GPGGA,161523.10,5057.2235126,N,00138.4864234,W,4,09,1.2,128.11,M,0.0,M,0.1,0050*56\r\n'
b'$GPGGA,161523.20,5057.2235126,N,00138.4864240,W,4,09,1.2,128.11,M,0.0,M,0.2,0050*55\r\n'
b'$GPGGA,161523.30,5057.2235126,N,00138.4864228,W,4,09,1.2,128.11,M,0.0,M,0.3,0050*5B\r\n'
b'$GPGGA,161523.40,5057.2235120,N,00138.4864234,W,4,09,1.2,128.12,M,0.0,M,0.4,0050*53\r\n'
b'$GPGGA,161523.50,5057.2235126,N,00138.4864234,W,4,09,1.2,128.11,M,0.0,M,0.5,0050*56\r\n'
b'$GPGGA,161523.60,5057.2235132,N,00138.4864252,W,4,09,1.2,128.12,M,0.0,M,0.6,0050*50\r\n'
b'$GPZDA,161523.60,11,08,2017,,*6E\r\n'
b'$GPGSA,A,3,14,17,03,28,16,09,08,22,11,01,32,19,1.5,1.2,0.8*39\r\n'
b'$GPGGA,161523.70,5057.2235120,N,00138.4864222,W,4,09,1.2,128.12,M,0.0,M,0.7,0050*54\r\n'
b'$GPGGA,161523.80,5057.2235126,N,00138.4864222,W,4,09,1.2,128.12,M,0.0,M,0.8,0050*52\r\n'
b'$GPGGA,161523.90,5057.2235132,N,00138.4864258,W,4,09,1.2,128.11,M,0.0,M,0.9,0050*59\r\n'
b'$GPGGA,161524.00,5057.2235126,N,00138.4864234,W,4,09,1.2,128.12,M,0.0,M,1.0,0050*53\r\n'
b'$GPGGA,161524.10,5057.2235102,N,00138.4864168,W,4,09,1.2,128.12,M,0.0,M,0.1,0050*5E\r\n'
b'$GPGGA,161524.20,5057.2235096,N,00138.4864174,W,4,09,1.2,128.12,M,0.0,M,0.2,0050*5F\r\n'
b'$GPGGA,161524.30,5057.2235108,N,00138.4864198,W,4,09,1.2,128.12,M,0.0,M,0.3,0050*5B\r\n'
b'$GPGGA,161524.40,5057.2235108,N,00138.4864180,W,4,09,1.2,128.12,M,0.0,M,0.4,0050*52\r\n'
b'$GPGGA,161524.50,5057.2235102,N,00138.4864180,W,4,09,1.2,128.12,M,0.0,M,0.5,0050*58\r\n'
b'$GPGGA,161524.60,5057.2235102,N,00138.4864186,W,4,09,1.2,128.13,M,0.0,M,0.6,0050*5F\r\n'
b'$GPZDA,161524.60,11,08,2017,,*69\r\n'
b'$GPGSA,A,3,14,17,03,28,08,22,11,01,32,19,,,1.5,1.2,0.8*37\r\n'
b'$GPGGA,161524.70,5057.2235108,N,00138.4864186,W,4,09,1.2,128.13,M,0.0,M,0.7,0050*55\r\n'
b'$GPGGA,161524.80,5057.2235108,N,00138.4864198,W,4,09,1.2,128.13,M,0.0,M,0.8,0050*5A\r\n'
b'$GPGGA,161524.90,5057.2235102,N,00138.4864192,W,4,09,1.2,128.13,M,0.0,M,0.9,0050*5A\r\n'
b'$GPGGA,161525.00,5057.2235114,N,00138.4864192,W,4,09,1.2,128.13,M,0.0,M,1.0,0050*5D\r\n'
b'$GPGGA,161525.10,5057.2235090,N,00138.4864192,W,4,09,1.2,128.12,M,0.0,M,0.1,0050*50\r\n'
b'$GPGGA,161525.20,5057.2235102,N,00138.4864210,W,4,09,1.2,128.12,M,0.0,M,0.2,0050*53\r\n'
b'$GPGGA,161525.30,5057.2235108,N,00138.4864210,W,4,09,1.2,128.12,M,0.0,M,0.3,0050*59\r\n'
b'$GPGGA,161525.40,5057.2235096,N,00138.4864204,W,4,09,1.2,128.12,M,0.0,M,0.4,0050*5A\r\n'
b'$GPGGA,161525.50,5057.2235096,N,00138.4864192,W,4,09,1.2,128.12,M,0.0,M,0.5,0050*56\r\n'
b'$GPGGA,161525.60,5057.2235108,N,00138.4864210,W,4,09,1.2,128.12,M,0.0,M,0.6,0050*59\r\n'
b'$GPZDA,161525.60,11,08,2017,,*68\r\n'
b'$GPGSA,A,3,14,17,03,28,15,08,22,11,01,32,19,,1.5,1.2,0.8*33\r\n'
b'$GPGGA,161525.70,5057.2235096,N,00138.4864210,W,4,09,1.2,128.12,M,0.0,M,0.7,0050*5F\r\n'
b'$GPGGA,161525.80,5057.2235108,N,00138.4864216,W,4,09,1.2,128.12,M,0.0,M,0.8,0050*5F\r\n'
b'$GPGGA,161525.90,5057.2235108,N,00138.4864216,W,4,09,1.2,128.12,M,0.0,M,0.9,0050*5F\r\n'
b'$GPGGA,161526.00,5057.2235096,N,00138.4864198,W,4,09,1.2,128.12,M,0.0,M,1.0,0050*5E\r\n'
b'$GPGGA,161526.10,5057.2235114,N,00138.4864198,W,4,09,1.2,128.12,M,0.0,M,0.1,0050*54\r\n'
b'$GPGGA,161526.20,5057.2235108,N,00138.4864198,W,4,09,1.2,128.12,M,0.0,M,0.2,0050*59\r\n'
b'$GPGGA,161526.30,5057.2235108,N,00138.4864192,W,4,09,1.2,128.12,M,0.0,M,0.3,0050*53\r\n'
b'$GPGGA,161526.40,5057.2235108,N,00138.4864186,W,4,09,1.2,128.12,M,0.0,M,0.4,0050*56\r\n'
b'$GPGGA,161526.50,5057.2235102,N,00138.4864192,W,4,09,1.2,128.12,M,0.0,M,0.5,0050*59\r\n'
b'$GPGGA,161526.60,5057.2235108,N,00138.4864192,W,4,09,1.2,128.12,M,0.0,M,0.6,0050*53\r\n'
b'$GPZDA,161526.60,11,08,2017,,*6B\r\n'
b'$GPGSA,A,3,14,17,03,28,15,08,22,11,01,32,,,1.5,1.2,0.8*3B\r\n'
b'$GPGGA,161526.70,5057.2235102,N,00138.4864174,W,4,09,1.2,128.13,M,0.0,M,0.7,0050*50\r\n'
b'$GPGGA,161526.80,5057.2235108,N,00138.4864198,W,4,09,1.2,128.13,M,0.0,M,0.8,0050*58\r\n'
b'$GPGGA,161526.90,5057.2235108,N,00138.4864192,W,4,09,1.2,128.13,M,0.0,M,0.9,0050*52\r\n'
b'$GPGGA,161527.00,5057.2235108,N,00138.4864198,W,4,09,1.2,128.13,M,0.0,M,1.0,0050*58\r\n'
b'$GPGGA,161527.10,5057.2235090,N,00138.4864180,W,4,09,1.2,128.12,M,0.0,M,0.1,0050*51\r\n'
b'$GPGGA,161527.20,5057.2235096,N,00138.4864216,W,4,09,1.2,128.12,M,0.0,M,0.2,0050*5B\r\n'
b'$GPGGA,161527.30,5057.2235096,N,00138.4864222,W,4,09,1.2,128.12,M,0.0,M,0.3,0050*5C\r\n'
b'$GPGGA,161527.40,5057.2235096,N,00138.4864216,W,4,09,1.2,128.12,M,0.0,M,0.4,0050*5B\r\n'
b'$GPGGA,161527.50,5057.2235096,N,00138.4864216,W,4,09,1.2,128.12,M,0.0,M,0.5,0050*5B\r\n'
b'$GPGGA,161527.60,5057.2235090,N,00138.4864204,W,4,09,1.2,128.12,M,0.0,M,0.6,0050*5E\r\n'
b'$GPZDA,161527.60,11,08,2017,,*6A\r\n'
b'$GPGSA,A,3,14,17,03,28,15,08,22,11,01,32,,,1.5,1.2,0.8*3B\r\n'
b'$GPGGA,161527.70,5057.2235090,N,00138.4864210,W,4,09,1.2,128.12,M,0.0,M,0.7,0050*5B\r\n'
b'$GPGGA,161527.80,5057.2235102,N,00138.4864222,W,4,09,1.2,128.12,M,0.0,M,0.8,0050*50\r\n'
b'$GPGGA,161527.90,5057.2235096,N,00138.4864210,W,4,09,1.2,128.12,M,0.0,M,0.9,0050*5D\r\n'
b'$GPGGA,161528.00,5057.2235102,N,00138.4864222,W,4,09,1.2,128.12,M,0.0,M,1.0,0050*5E\r\n'
b'$GPGGA,161528.10,5057.2235102,N,00138.4864204,W,4,09,1.2,128.12,M,0.0,M,0.1,0050*5B\r\n'
b'$GPGGA,161528.20,5057.2235096,N,00138.4864216,W,4,09,1.2,128.12,M,0.0,M,0.2,0050*54\r\n'
b'$GPGGA,161528.30,5057.2235096,N,00138.4864198,W,4,09,1.2,128.12,M,0.0,M,0.3,0050*51\r\n'
b'$GPGGA,161528.40,5057.2235096,N,00138.4864204,W,4,09,1.2,128.12,M,0.0,M,0.4,0050*57\r\n'
b'$GPGGA,161528.50,5057.2235090,N,00138.4864204,W,4,09,1.2,128.12,M,0.0,M,0.5,0050*51\r\n'
b'$GPGGA,161528.60,5057.2235096,N,00138.4864210,W,4,09,1.2,128.12,M,0.0,M,0.6,0050*52\r\n'
b'$GPZDA,161528.60,11,08,2017,,*65\r\n'
b'$GPGSA,A,3,14,17,03,28,15,18,08,22,11,01,32,,1.5,1.2,0.8*32\r\n'
b'$GPGGA,161528.70,5057.2235090,N,00138.4864204,W,4,09,1.2,128.12,M,0.0,M,0.7,0050*51\r\n'
b'$GPGGA,161528.80,5057.2235096,N,00138.4864216,W,4,09,1.2,128.12,M,0.0,M,0.8,0050*54\r\n'
b'$GPGGA,161528.90,5057.2235090,N,00138.4864204,W,4,09,1.2,128.12,M,0.0,M,0.9,0050*51\r\n'
b'$GPGGA,161529.00,5057.2235090,N,00138.4864204,W,4,09,1.2,128.12,M,0.0,M,1.0,0050*51\r\n'
b'$GPGGA,161529.10,5057.2235114,N,00138.4864240,W,4,09,1.2,128.11,M,0.0,M,0.1,0050*5E\r\n'
b'$GPGGA,161529.20,5057.2235108,N,00138.4864234,W,4,09,1.2,128.11,M,0.0,M,0.2,0050*50\r\n'
b'$GPGGA,161529.30,5057.2235102,N,00138.4864234,W,4,09,1.2,128.12,M,0.0,M,0.3,0050*59\r\n'
b'$GPGGA,161529.40,5057.2235108,N,00138.4864234,W,4,09,1.2,128.11,M,0.0,M,0.4,0050*50\r\n'
b'$GPGGA,161529.50,5057.2235102,N,00138.4864234,W,4,09,1.2,128.12,M,0.0,M,0.5,0050*59\r\n'
b'$GPGGA,161529.60,5057.2235102,N,00138.4864246,W,4,09,1.2,128.11,M,0.0,M,0.6,0050*5F\r\n'
b'$GPZDA,161529.60,11,08,2017,,*64\r\n'
b'$GPGSA,A,3,14,17,03,28,27,18,08,22,11,01,32,,1.5,1.2,0.8*33\r\n'
b'$GPGGA,161529.70,5057.2235108,N,00138.4864240,W,4,09,1.2,128.12,M,0.0,M,0.7,0050*50\r\n'
b'$GPGGA,161529.80,5057.2235096,N,00138.4864240,W,4,09,1.2,128.12,M,0.0,M,0.8,0050*56\r\n'
b'$GPGGA,161529.90,5057.2235108,N,00138.4864252,W,4,09,1.2,128.11,M,0.0,M,0.9,0050*50\r\n'
b'$GPGGA,161530.00,5057.2235108,N,00138.4864240,W,4,09,1.2,128.12,M,0.0,M,1.0,0050*59\r\n'
b'$GPGGA,161530.10,5057.2235108,N,00138.4864240,W,4,09,1.2,128.11,M,0.0,M,0.1,0050*5B\r\n'
b'$GPGGA,161530.20,5057.2235108,N,00138.4864240,W,4,09,1.2,128.11,M,0.0,M,0.2,0050*5B\r\n'
b'$GPGGA,161530.30,5057.2235108,N,00138.4864246,W,4,09,1.2,128.11,M,0.0,M,0.3,0050*5D\r\n'
b'$GPGGA,161530.40,5057.2235114,N,00138.4864252,W,4,09,1.2,128.11,M,0.0,M,0.4,0050*55\r\n'
b'$GPGGA,161530.50,5057.2235114,N,00138.4864252,W,4,09,1.2,128.11,M,0.0,M,0.5,0050*55\r\n'
b'$GPGGA,161530.60,5057.2235108,N,00138.4864246,W,4,09,1.2,128.11,M,0.0,M,0.6,0050*5D\r\n'
b'$GPZDA,161530.60,11,08,2017,,*6C\r\n'
b'$GPGSA,A,3,14,17,03,28,27,18,08,22,11,01,32,,1.5,1.2,0.8*33\r\n'
b'$GPGGA,161530.70,5057.2235108,N,00138.4864246,W,4,09,1.2,128.12,M,0.0,M,0.7,0050*5E\r\n'
b'$GPGGA,161530.80,5057.2235102,N,00138.4864252,W,4,09,1.2,128.12,M,0.0,M,0.8,0050*51\r\n'
b'$GPGGA,161530.90,5057.2235114,N,00138.4864252,W,4,09,1.2,128.12,M,0.0,M,0.9,0050*56\r\n'
b'$GPGGA,161531.00,5057.2235114,N,00138.4864252,W,4,09,1.2,128.12,M,0.0,M,1.0,0050*56\r\n'
b'$GPGGA,161531.10,5057.2235096,N,00138.4864216,W,4,09,1.2,128.12,M,0.0,M,0.1,0050*5C\r\n'
b'$GPGGA,161531.20,5057.2235102,N,00138.4864210,W,4,09,1.2,128.12,M,0.0,M,0.2,0050*56\r\n'
b'$GPGGA,161531.30,5057.2235102,N,00138.4864216,W,4,09,1.2,128.12,M,0.0,M,0.3,0050*50\r\n'
b'$GPGGA,161531.40,5057.2235102,N,00138.4864222,W,4,09,1.2,128.12,M,0.0,M,0.4,0050*57\r\n'
b'$GPGGA,161531.50,5057.2235102,N,00138.4864222,W,4,09,1.2,128.12,M,0.0,M,0.5,0050*57\r\n'
b'$GPGGA,161531.60,5057.2235090,N,00138.4864222,W,4,09,1.2,128.12,M,0.0,M,0.6,0050*5D\r\n'
b'$GPZDA,161531.60,11,08,2017,,*6D\r\n'
b'$GPGSA,A,3,14,17,03,28,27,18,08,22,11,01,32,,1.5,1.2,0.8*33\r\n'
b'$GPGGA,161531.70,5057.2235102,N,00138.4864228,W,4,09,1.2,128.12,M,0.0,M,0.7,0050*5D\r\n'
b'$GPGGA,161531.80,5057.2235090,N,00138.4864222,W,4,09,1.2,128.12,M,0.0,M,0.8,0050*5D\r\n'
b'$GPGGA,161531.90,5057.2235096,N,00138.4864234,W,4,09,1.2,128.12,M,0.0,M,0.9,0050*5C\r\n'
b'$GPGGA,161532.00,5057.2235096,N,00138.4864234,W,4,09,1.2,128.12,M,0.0,M,1.0,0050*5E\r\n'
b'$GPGGA,161532.10,5057.2235108,N,00138.4864222,W,4,09,1.2,128.11,M,0.0,M,0.1,0050*5D\r\n'
b'$GPGGA,161532.20,5057.2235108,N,00138.4864234,W,4,09,1.2,128.11,M,0.0,M,0.2,0050*5A\r\n'
b'$GPGGA,161532.30,5057.2235102,N,00138.4864234,W,4,09,1.2,128.11,M,0.0,M,0.3,0050*50\r\n'
b'$GPGGA,161532.40,5057.2235102,N,00138.4864234,W,4,09,1.2,128.11,M,0.0,M,0.4,0050*50\r\n'
b'$GPGGA,161532.50,5057.2235102,N,00138.4864234,W,4,09,1.2,128.11,M,0.0,M,0.5,0050*50\r\n'
b'$GPGGA,161532.60,5057.2235096,N,00138.4864240,W,4,09,1.2,128.12,M,0.0,M,0.6,0050*5C\r\n'
b'$GPZDA,161532.60,11,08,2017,,*6E\r\n'
b'$GPGSA,A,3,14,17,03,28,27,29,08,22,11,01,32,,1.5,1.2,0.8*31\r\n'
b'$GPGGA,161532.70,5057.2235102,N,00138.4864228,W,4,09,1.2,128.11,M,0.0,M,0.7,0050*5D\r\n'
b'$GPGGA,161532.80,5057.2235108,N,00138.4864246,W,4,09,1.2,128.11,M,0.0,M,0.8,0050*5F\r\n'
b'$GPGGA,161532.90,5057.2235114,N,00138.4864252,W,4,09,1.2,128.11,M,0.0,M,0.9,0050*57\r\n'
b'$GPGGA,161533.00,5057.2235102,N,00138.4864246,W,4,09,1.2,128.11,M,0.0,M,1.0,0050*55\r\n'
b'$GPGGA,161533.10,5057.2235102,N,00138.4864222,W,4,09,1.2,128.12,M,0.0,M,0.1,0050*55\r\n'
b'$GPGGA,161533.20,5057.2235102,N,00138.4864222,W,4,09,1.2,128.12,M,0.0,M,0.2,0050*55\r\n'
b'$GPGGA,161533.30,5057.2235114,N,00138.4864234,W,4,09,1.2,128.12,M,0.0,M,0.3,0050*55\r\n'
b'$GPGGA,161533.40,5057.2235108,N,00138.4864234,W,4,09,1.2,128.12,M,0.0,M,0.4,0050*58\r\n'
b'$GPGGA,161533.50,5057.2235108,N,00138.4864240,W,4,09,1.2,128.12,M,0.0,M,0.5,0050*5B\r\n'
b'$GPGGA,161533.60,5057.2235114,N,00138.4864246,W,4,09,1.2,128.12,M,0.0,M,0.6,0050*50\r\n'
b'$GPZDA,161533.60,11,08,2017,,*6F\r\n'
b'$GPGSA,A,3,14,17,03,28,29,08,22,11,01,32,,,1.5,1.2,0.8*34\r\n'
b'$GPGGA,161533.70,5057.2235108,N,00138.4864234,W,4,09,1.2,128.12,M,0.0,M,0.7,0050*58\r\n'
b'$GPGGA,161533.80,5057.2235108,N,00138.4864234,W,4,09,1.2,128.12,M,0.0,M,0.8,0050*58\r\n'
b'$GPGGA,161533.90,5057.2235096,N,00138.4864240,W,4,09,1.2,128.12,M,0.0,M,0.9,0050*5D\r\n'
b'$GPGGA,161534.00,5057.2235108,N,00138.4864246,W,4,09,1.2,128.12,M,0.0,M,1.0,0050*5B\r\n'
b'$GPGGA,161534.10,5057.2235108,N,00138.4864240,W,4,09,1.2,128.11,M,0.0,M,0.1,0050*5F\r\n'
b'$GPGGA,161534.20,5057.2235114,N,00138.4864252,W,4,09,1.2,128.11,M,0.0,M,0.2,0050*51\r\n'
b'$GPGGA,161534.30,5057.2235120,N,00138.4864258,W,4,09,1.2,128.11,M,0.0,M,0.3,0050*5C\r\n'
b'$GPGGA,161534.40,5057.2235114,N,00138.4864258,W,4,09,1.2,128.11,M,0.0,M,0.4,0050*5B\r\n'
b'$GPGGA,161534.50,5057.2235114,N,00138.4864258,W,4,09,1.2,128.12,M,0.0,M,0.5,0050*58\r\n'
b'$GPGGA,161534.60,5057.2235114,N,00138.4864264,W,4,09,1.2,128.12,M,0.0,M,0.6,0050*57\r\n'
b'$GPZDA,161534.60,11,08,2017,,*68\r\n'
b'$GPGSA,A,3,14,17,03,28,29,08,22,11,01,32,,,1.5,1.2,0.8*34\r\n'
b'$GPGGA,161534.70,5057.2235126,N,00138.4864270,W,4,09,1.2,128.12,M,0.0,M,0.7,0050*53\r\n'
b'$GPGGA,161534.80,5057.2235120,N,00138.4864270,W,4,09,1.2,128.12,M,0.0,M,0.8,0050*55\r\n'
b'$GPGGA,161534.90,5057.2235120,N,00138.4864270,W,4,09,1.2,128.12,M,0.0,M,0.9,0050*55\r\n'
b'$GPGGA,161535.00,5057.2235120,N,00138.4864270,W,4,09,1.2,128.12,M,0.0,M,1.0,0050*55\r\n'
b'$GPGGA,161535.10,5057.2235126,N,00138.4864258,W,4,09,1.2,128.11,M,0.0,M,0.1,0050*5B\r\n'
b'$GPGGA,161535.20,5057.2235114,N,00138.4864258,W,4,09,1.2,128.11,M,0.0,M,0.2,0050*5A\r\n'
b'$GPGGA,161535.30,5057.2235126,N,00138.4864276,W,4,09,1.2,128.11,M,0.0,M,0.3,0050*57\r\n'
b'$GPGGA,161535.40,5057.2235120,N,00138.4864264,W,4,09,1.2,128.11,M,0.0,M,0.4,0050*52\r\n'
b'$GPGGA,161535.50,5057.2235120,N,00138.4864276,W,4,09,1.2,128.11,M,0.0,M,0.5,0050*51\r\n'
b'$GPGGA,161535.60,5057.2235120,N,00138.4864276,W,4,09,1.2,128.11,M,0.0,M,0.6,0050*51\r\n'
b'$GPZDA,161535.60,11,08,2017,,*69\r\n'
b'$GPGSA,A,3,14,17,03,28,08,22,11,01,32,,,,1.5,1.2,0.8*3F\r\n'
b'$GPGGA,161535.70,5057.2235120,N,00138.4864282,W,4,09,1.2,128.11,M,0.0,M,0.7,0050*5A\r\n'
b'$GPGGA,161535.80,5057.2235132,N,00138.4864282,W,4,09,1.2,128.11,M,0.0,M,0.8,0050*59\r\n'
b'$GPGGA,161535.90,5057.2235126,N,00138.4864276,W,4,09,1.2,128.11,M,0.0,M,0.9,0050*57\r\n'
b'$GPGGA,161536.00,5057.2235132,N,00138.4864294,W,4,09,1.2,128.11,M,0.0,M,1.0,0050*5C\r\n'
b'$GPGGA,161536.10,5057.2235126,N,00138.4864264,W,4,09,1.2,128.11,M,0.0,M,0.1,0050*57\r\n'
b'$GPGGA,161536.20,5057.2235132,N,00138.4864270,W,4,09,1.2,128.11,M,0.0,M,0.2,0050*57\r\n'
b'$GPGGA,161536.30,5057.2235126,N,00138.4864264,W,4,09,1.2,128.11,M,0.0,M,0.3,0050*57\r\n'
b'$GPGGA,161536.40,5057.2235132,N,00138.4864276,W,4,09,1.2,128.11,M,0.0,M,0.4,0050*51\r\n'
b'$GPGGA,161536.50,5057.2235126,N,00138.4864270,W,4,09,1.2,128.11,M,0.0,M,0.5,0050*52\r\n'
b'$GPGGA,161536.60,5057.2235126,N,00138.4864270,W,4,09,1.2,128.12,M,0.0,M,0.6,0050*51\r\n'
b'$GPZDA,161536.60,11,08,2017,,*6A\r\n'
b'$GPGSA,A,3,14,17,03,28,13,08,22,11,01,32,,,1.5,1.2,0.8*3D\r\n'
b'$GPGGA,161536.70,5057.2235132,N,00138.4864270,W,4,09,1.2,128.11,M,0.0,M,0.7,0050*57\r\n'
b'$GPGGA,161536.80,5057.2235132,N,00138.4864282,W,4,09,1.2,128.11,M,0.0,M,0.8,0050*5A\r\n'
b'$GPGGA,161536.90,5057.2235126,N,00138.4864276,W,4,09,1.2,128.12,M,0.0,M,0.9,0050*57\r\n'
b'$GPGGA,161537.00,5057.2235132,N,00138.4864282,W,4,09,1.2,128.12,M,0.0,M,1.0,0050*59\r\n'
b'$GPGGA,161537.10,5057.2235120,N,00138.4864246,W,4,09,1.2,128.11,M,0.0,M,0.1,0050*50\r\n'
b'$GPGGA,161537.20,5057.2235120,N,00138.4864246,W,4,09,1.2,128.11,M,0.0,M,0.2,0050*50\r\n'
b'$GPGGA,161537.30,5057.2235114,N,00138.4864252,W,4,09,1.2,128.11,M,0.0,M,0.3,0050*52\r\n'
b'$GPGGA,161537.40,5057.2235120,N,00138.4864264,W,4,09,1.2,128.11,M,0.0,M,0.4,0050*50\r\n'
b'$GPGGA,161537.50,5057.2235120,N,00138.4864252,W,4,09,1.2,128.12,M,0.0,M,0.5,0050*56\r\n'
b'$GPGGA,161537.60,5057.2235120,N,00138.4864258,W,4,09,1.2,128.12,M,0.0,M,0.6,0050*5C\r\n'
b'$GPZDA,161537.60,11,08,2017,,*6B\r\n'
b'$GPGSA,A,3,14,17,03,28,13,23,08,22,11,01,32,,1.5,1.2,0.8*3C\r\n'
b'$GPGGA,161537.70,5057.2235120,N,00138.4864252,W,4,09,1.2,128.12,M,0.0,M,0.7,0050*56\r\n'
b'$GPGGA,161537.80,5057.2235126,N,00138.4864270,W,4,09,1.2,128.12,M,0.0,M,0.8,0050*50\r\n'
b'$GPGGA,161537.90,5057.2235126,N,00138.4864258,W,4,09,1.2,128.12,M,0.0,M,0.9,0050*5A\r\n'
b'$GPGGA,161538.00,5057.2235126,N,00138.4864264,W,4,09,1.2,128.12,M,0.0,M,1.0,0050*5B\r\n'
b'$GPGGA,161538.10,5057.2235120,N,00138.4864228,W,4,09,1.2,128.11,M,0.0,M,0.1,0050*57\r\n'
b'$GPGGA,161538.20,5057.2235114,N,00138.4864234,W,4,09,1.2,128.11,M,0.0,M,0.2,0050*5D\r\n'
b'$GPGGA,161538.30,5057.2235126,N,00138.4864240,W,4,09,1.2,128.12,M,0.0,M,0.3,0050*5C\r\n'
b'$GPGGA,161538.40,5057.2235114,N,00138.4864234,W,4,09,1.2,128.12,M,0.0,M,0.4,0050*5E\r\n'
b'$GPGGA,161538.50,5057.2235120,N,00138.4864252,W,4,09,1.2,128.12,M,0.0,M,0.5,0050*59\r\n'
b'$GPGGA,161538.60,5057.2235120,N,00138.4864234,W,4,09,1.2,128.12,M,0.0,M,0.6,0050*59\r\n'
b'$GPZDA,161538.60,11,08,2017,,*64\r\n'
b'$GPGSA,A,3,14,17,03,28,13,23,05,08,22,11,01,32,1.5,1.2,0.8*39\r\n'
b'$GPGGA,161538.70,5057.2235126,N,00138.4864252,W,4,09,1.2,128.12,M,0.0,M,0.7,0050*5F\r\n'
b'$GPGGA,161538.80,5057.2235126,N,00138.4864252,W,4,09,1.2,128.12,M,0.0,M,0.8,0050*5F\r\n'
b'$GPGGA,161538.90,5057.2235126,N,00138.4864246,W,4,09,1.2,128.12,M,0.0,M,0.9,0050*5A\r\n'
b'$GPGGA,161539.00,5057.2235126,N,00138.4864258,W,4,09,1.2,128.12,M,0.0,M,1.0,0050*55\r\n'
b'$GPGGA,161539.10,5057.2235120,N,00138.4864246,W,4,09,1.2,128.11,M,0.0,M,0.1,0050*5E\r\n'
b'$GPGGA,161539.20,5057.2235126,N,00138.4864258,W,4,09,1.2,128.11,M,0.0,M,0.2,0050*57\r\n'
b'$GPGGA,161539.30,5057.2235120,N,00138.4864252,W,4,09,1.2,128.11,M,0.0,M,0.3,0050*5B\r\n'
b'$GPGGA,161539.40,5057.2235126,N,00138.4864252,W,4,09,1.2,128.12,M,0.0,M,0.4,0050*5E\r\n'
b'$GPGGA,161539.50,5057.2235126,N,00138.4864264,W,4,09,1.2,128.12,M,0.0,M,0.5,0050*5B\r\n'
b'$GPGGA,161539.60,5057.2235126,N,00138.4864252,W,4,09,1.2,128.12,M,0.0,M,0.6,0050*5E\r\n'
b'$GPZDA,161539.60,11,08,2017,,*65\r\n'
b'$GPGSA,A,3,14,17,03,28,16,23,05,08,22,11,01,32,1.5,1.2,0.8*3C\r\n'
b'$GPGGA,161539.70,5057.2235120,N,00138.4864258,W,4,09,1.2,128.12,M,0.0,M,0.7,0050*52\r\n'
b'$GPGGA,161539.80,5057.2235120,N,00138.4864252,W,4,09,1.2,128.12,M,0.0,M,0.8,0050*58\r\n'
b'$GPGGA,161539.90,5057.2235126,N,00138.4864258,W,4,09,1.2,128.12,M,0.0,M,0.9,0050*54\r\n'
b'$GPGGA,161540.00,5057.2235120,N,00138.4864252,W,4,09,1.2,128.12,M,0.0,M,1.0,0050*57\r\n'
b'$GPGGA,161540.10,5057.2235126,N,00138.4864270,W,4,09,1.2,128.11,M,0.0,M,0.1,0050*53\r\n'
b'$GPGGA,161540.20,5057.2235126,N,00138.4864252,W,4,09,1.2,128.12,M,0.0,M,0.2,0050*50\r\n'
b'$GPGGA,161540.30,5057.2235132,N,00138.4864258,W,4,09,1.2,128.11,M,0.0,M,0.3,0050*5C\r\n'
b'$GPGGA,161540.40,5057.2235132,N,00138.4864264,W,4,09,1.2,128.11,M,0.0,M,0.4,0050*53\r\n'
b'$GPGGA,161540.50,5057.2235132,N,00138.4864264,W,4,09,1.2,128.11,M,0.0,M,0.5,0050*53\r\n'
b'$GPGGA,161540.60,5057.2235132,N,00138.4864270,W,4,09,1.2,128.11,M,0.0,M,0.6,0050*56\r\n'
b'$GPZDA,161540.60,11,08,2017,,*6B\r\n'
b'$GPGSA,A,3,14,17,03,28,16,05,08,22,11,01,32,09,1.5,1.2,0.8*34\r\n'
b'$GPGGA,161540.70,5057.2235126,N,00138.4864258,W,4,09,1.2,128.12,M,0.0,M,0.7,0050*5A\r\n'
b'$GPGGA,161540.80,5057.2235132,N,00138.4864270,W,4,09,1.2,128.12,M,0.0,M,0.8,0050*55\r\n'
b'$GPGGA,161540.90,5057.2235126,N,00138.4864264,W,4,09,1.2,128.12,M,0.0,M,0.9,0050*55\r\n'
b'$GPGGA,161541.00,5057.2235126,N,00138.4864258,W,4,09,1.2,128.12,M,0.0,M,1.0,0050*5A\r\n'
b'$GPGGA,161541.10,5057.2235120,N,00138.4864234,W,4,09,1.2,128.12,M,0.0,M,0.1,0050*57\r\n'
b'$GPGGA,161541.20,5057.2235114,N,00138.4864234,W,4,09,1.2,128.12,M,0.0,M,0.2,0050*50\r\n'
b'$GPGGA,161541.30,5057.2235126,N,00138.4864234,W,4,09,1.2,128.12,M,0.0,M,0.3,0050*51\r\n'
b'$GPGGA,161541.40,5057.2235126,N,00138.4864240,W,4,09,1.2,128.12,M,0.0,M,0.4,0050*52\r\n'
b'$GPGGA,161541.50,5057.2235114,N,00138.4864234,W,4,09,1.2,128.12,M,0.0,M,0.5,0050*50\r\n'
b'$GPGGA,161541.60,5057.2235120,N,00138.4864240,W,4,09,1.2,128.12,M,0.0,M,0.6,0050*54\r\n'
b'$GPZDA,161541.60,11,08,2017,,*6A\r\n'
b'$GPGSA,A,3,14,17,03,28,16,30,08,22,11,01,32,09,1.5,1.2,0.8*32\r\n'
b'$GPGGA,161541.70,5057.2235120,N,00138.4864234,W,4,09,1.2,128.12,M,0.0,M,0.7,0050*57\r\n'
b'$GPGGA,161541.80,5057.2235120,N,00138.4864234,W,4,09,1.2,128.12,M,0.0,M,0.8,0050*57\r\n'
b'$GPGGA,161541.90,5057.2235126,N,00138.4864252,W,4,09,1.2,128.12,M,0.0,M,0.9,0050*51\r\n'
b'$GPGGA,161542.00,5057.2235120,N,00138.4864246,W,4,09,1.2,128.12,M,0.0,M,1.0,0050*50\r\n'
b'$GPGGA,161542.10,5057.2235120,N,00138.4864246,W,4,09,1.2,128.11,M,0.0,M,0.1,0050*52\r\n'
b'$GPGGA,161542.20,5057.2235120,N,00138.4864246,W,4,09,1.2,128.12,M,0.0,M,0.2,0050*51\r\n'
b'$GPGGA,161542.30,5057.2235114,N,00138.4864246,W,4,09,1.2,128.12,M,0.0,M,0.3,0050*56\r\n'
b'$GPGGA,161542.40,5057.2235120,N,00138.4864246,W,4,09,1.2,128.12,M,0.0,M,0.4,0050*51\r\n'
b'$GPGGA,161542.50,5057.2235114,N,00138.4864240,W,4,09,1.2,128.12,M,0.0,M,0.5,0050*50\r\n'
b'$GPGGA,161542.60,5057.2235120,N,00138.4864252,W,4,09,1.2,128.12,M,0.0,M,0.6,0050*54\r\n'
b'$GPZDA,161542.60,11,08,2017,,*69\r\n'
b'$GPGSA,A,3,14,17,03,28,16,30,10,08,22,11,01,32,1.5,1.2,0.8*3A\r\n'
b'$GPGGA,161542.70,5057.2235126,N,00138.4864252,W,4,09,1.2,128.12,M,0.0,M,0.7,0050*52\r\n'
b'$GPGGA,161542.80,5057.2235120,N,00138.4864252,W,4,09,1.2,128.12,M,0.0,M,0.8,0050*54\r\n'
b'$GPGGA,161542.90,5057.2235126,N,00138.4864252,W,4,09,1.2,128.12,M,0.0,M,0.9,0050*52\r\n'
b'$GPGGA,161543.00,5057.2235126,N,00138.4864258,W,4,09,1.2,128.12,M,0.0,M,1.0,0050*58\r\n'
b'$GPGGA,161543.10,5057.2235126,N,00138.4864240,W,4,09,1.2,128.12,M,0.0,M,0.1,0050*50\r\n'
b'$GPGGA,161543.20,5057.2235132,N,00138.4864252,W,4,09,1.2,128.12,M,0.0,M,0.2,0050*56\r\n'
b'$GPGGA,161543.30,5057.2235126,N,00138.4864246,W,4,09,1.2,128.12,M,0.0,M,0.3,0050*56\r\n'
b'$GPGGA,161543.40,5057.2235132,N,00138.4864252,W,4,09,1.2,128.12,M,0.0,M,0.4,0050*56\r\n'
b'$GPGGA,161543.50,5057.2235126,N,00138.4864240,W,4,09,1.2,128.12,M,0.0,M,0.5,0050*50\r\n'
b'$GPGGA,161543.60,5057.2235132,N,00138.4864246,W,4,09,1.2,128.12,M,0.0,M,0.6,0050*53\r\n'
b'$GPZDA,161543.60,11,08,2017,,*68\r\n'
b'$GPGSA,A,3,14,17,03,28,30,10,08,22,11,01,32,,1.5,1.2,0.8*3D\r\n'
b'$GPGGA,161543.70,5057.2235126,N,00138.4864246,W,4,09,1.2,128.12,M,0.0,M,0.7,0050*56\r\n'
b'$GPGGA,161543.80,5057.2235126,N,00138.4864240,W,4,09,1.2,128.12,M,0.0,M,0.8,0050*50\r\n'
b'$GPGGA,161543.90,5057.2235120,N,00138.4864240,W,4,09,1.2,128.12,M,0.0,M,0.9,0050*56\r\n'
b'$GPGGA,161544.00,5057.2235120,N,00138.4864252,W,4,09,1.2,128.12,M,0.0,M,1.0,0050*53\r\n'
b'$GPGGA,161544.10,5057.2235114,N,00138.4864234,W,4,09,1.2,128.12,M,0.0,M,0.1,0050*55\r\n'
b'$GPGGA,161544.20,5057.2235114,N,00138.4864234,W,4,09,1.2,128.12,M,0.0,M,0.2,0050*55\r\n'
b'$GPGGA,161544.30,5057.2235114,N,00138.4864240,W,4,09,1.2,128.12,M,0.0,M,0.3,0050*56\r\n'
b'$GPGGA,161544.40,5057.2235114,N,00138.4864246,W,4,09,1.2,128.12,M,0.0,M,0.4,0050*50\r\n'
b'$GPGGA,161544.50,5057.2235108,N,00138.4864246,W,4,09,1.2,128.12,M,0.0,M,0.5,0050*5D\r\n'
b'$GPGGA,161544.60,5057.2235108,N,00138.4864252,W,4,09,1.2,128.12,M,0.0,M,0.6,0050*58\r\n'
b'$GPZDA,161544.60,11,08,2017,,*6F\r\n'
b'$GPGSA,A,3,14,17,03,28,10,08,22,11,01,32,,,1.5,1.2,0.8*3E\r\n'
b'$GPGGA,161544.70,5057.2235108,N,00138.4864240,W,4,09,1.2,128.12,M,0.0,M,0.7,0050*5B\r\n'
b'$GPGGA,161544.80,5057.2235102,N,00138.4864246,W,4,09,1.2,128.12,M,0.0,M,0.8,0050*57\r\n'
b'$GPGGA,161544.90,5057.2235102,N,00138.4864246,W,4,09,1.2,128.12,M,0.0,M,0.9,0050*57\r\n'
b'$GPGGA,161545.00,5057.2235096,N,00138.4864234,W,4,09,1.2,128.12,M,0.0,M,1.0,0050*5E\r\n'
b'$GPGGA,161545.10,5057.2235120,N,00138.4864228,W,4,09,1.2,128.12,M,0.0,M,0.1,0050*5E\r\n'
b'$GPGGA,161545.20,5057.2235120,N,00138.4864240,W,4,09,1.2,128.12,M,0.0,M,0.2,0050*50\r\n'
b'$GPGGA,161545.30,5057.2235114,N,00138.4864240,W,4,09,1.2,128.12,M,0.0,M,0.3,0050*57\r\n'
b'$GPGGA,161545.40,5057.2235120,N,00138.4864234,W,4,09,1.2,128.12,M,0.0,M,0.4,0050*53\r\n'
b'$GPGGA,161545.50,5057.2235120,N,00138.4864240,W,4,09,1.2,128.12,M,0.0,M,0.5,0050*50\r\n'
b'$GPGGA,161545.60,5057.2235114,N,00138.4864234,W,4,09,1.2,128.12,M,0.0,M,0.6,0050*54\r\n'
b'$GPZDA,161545.60,11,08,2017,,*6E\r\n'
b'$GPGSA,A,3,14,17,03,28,10,08,22,11,01,32,,,1.5,1.2,0.8*3E\r\n'
b'$GPGGA,161545.70,5057.2235108,N,00138.4864228,W,4,09,1.2,128.12,M,0.0,M,0.7,0050*54\r\n'
b'$GPGGA,161545.80,5057.2235114,N,00138.4864240,W,4,09,1.2,128.12,M,0.0,M,0.8,0050*57\r\n'
b'$GPGGA,161545.90,5057.2235114,N,00138.4864240,W,4,09,1.2,128.12,M,0.0,M,0.9,0050*57\r\n'
b'$GPGGA,161546.00,5057.2235114,N,00138.4864246,W,4,09,1.2,128.12,M,0.0,M,1.0,0050*53\r\n'
b'$GPGGA,161546.10,5057.2235114,N,00138.4864246,W,4,09,1.2,128.12,M,0.0,M,0.1,0050*52\r\n'
b'$GPGGA,161546.20,5057.2235114,N,00138.4864252,W,4,09,1.2,128.12,M,0.0,M,0.2,0050*57\r\n'
b'$GPGGA,161546.30,5057.2235108,N,00138.4864240,W,4,09,1.2,128.12,M,0.0,M,0.3,0050*59\r\n'
b'$GPGGA,161546.40,5057.2235108,N,00138.4864246,W,4,09,1.2,128.12,M,0.0,M,0.4,0050*5F\r\n'
b'$GPGGA,161546.50,5057.2235108,N,00138.4864240,W,4,09,1.2,128.12,M,0.0,M,0.5,0050*59\r\n'
b'$GPGGA,161546.60,5057.2235114,N,00138.4864264,W,4,09,1.2,128.12,M,0.0,M,0.6,0050*52\r\n'
b'$GPZDA,161546.60,11,08,2017,,*6D\r\n'
b'$GPGSA,A,3,14,17,03,28,08,22,11,01,32,,,,1.5,1.2,0.8*3F\r\n'
b'$GPGGA,161546.70,5057.2235102,N,00138.4864246,W,4,09,1.2,128.12,M,0.0,M,0.7,0050*55\r\n'
b'$GPGGA,161546.80,5057.2235114,N,00138.4864252,W,4,09,1.2,128.12,M,0.0,M,0.8,0050*57\r\n'
b'$GPGGA,161546.90,5057.2235114,N,00138.4864252,W,4,09,1.2,128.12,M,0.0,M,0.9,0050*57\r\n'
b'$GPGGA,161547.00,5057.2235114,N,00138.4864258,W,4,09,1.2,128.12,M,0.0,M,1.0,0050*5D\r\n'
b'$GPGGA,161547.10,5057.2235114,N,00138.4864228,W,4,09,1.2,128.12,M,0.0,M,0.1,0050*5B\r\n'
b'$GPGGA,161547.20,5057.2235120,N,00138.4864228,W,4,09,1.2,128.12,M,0.0,M,0.2,0050*5C\r\n'
b'$GPGGA,161547.30,5057.2235120,N,00138.4864240,W,4,09,1.2,128.12,M,0.0,M,0.3,0050*52\r\n'
b'$GPGGA,161547.40,5057.2235120,N,00138.4864234,W,4,09,1.2,128.12,M,0.0,M,0.4,0050*51\r\n'
b'$GPGGA,161547.50,5057.2235108,N,00138.4864228,W,4,09,1.2,128.12,M,0.0,M,0.5,0050*56\r\n'
b'$GPGGA,161547.60,5057.2235114,N,00138.4864222,W,4,09,1.2,128.12,M,0.0,M,0.6,0050*51\r\n'
b'$GPZDA,161547.60,11,08,2017,,*6C\r\n'
b'$GPGSA,A,3,14,17,03,28,04,08,22,11,01,32,,,1.5,1.2,0.8*3B\r\n'
b'$GPGGA,161547.70,5057.2235114,N,00138.4864240,W,4,09,1.2,128.12,M,0.0,M,0.7,0050*55\r\n'
b'$GPGGA,161547.80,5057.2235114,N,00138.4864240,W,4,09,1.2,128.12,M,0.0,M,0.8,0050*55\r\n'
b'$GPGGA,161547.90,5057.2235114,N,00138.4864246,W,4,09,1.2,128.12,M,0.0,M,0.9,0050*53\r\n'
b'$GPGGA,161548.00,5057.2235120,N,00138.4864240,W,4,09,1.2,128.12,M,0.0,M,1.0,0050*5C\r\n'
b'$GPGGA,161548.10,5057.2235126,N,00138.4864246,W,4,09,1.2,128.12,M,0.0,M,0.1,0050*5D\r\n'
b'$GPGGA,161548.20,5057.2235132,N,00138.4864240,W,4,09,1.2,128.12,M,0.0,M,0.2,0050*5E\r\n'
b'$GPGGA,161548.30,5057.2235126,N,00138.4864246,W,4,09,1.2,128.12,M,0.0,M,0.3,0050*5D\r\n'
b'$GPGGA,161548.40,5057.2235132,N,00138.4864252,W,4,09,1.2,128.12,M,0.0,M,0.4,0050*5D\r\n'
b'$GPGGA,161548.50,5057.2235132,N,00138.4864246,W,4,09,1.2,128.12,M,0.0,M,0.5,0050*58\r\n'
b'$GPGGA,161548.60,5057.2235132,N,00138.4864246,W,4,09,1.2,128.12,M,0.0,M,0.6,0050*58\r\n'
b'$GPZDA,161548.60,11,08,2017,,*63\r\n'
b'$GPGSA,A,3,14,17,03,28,04,08,22,11,01,32,,,1.5,1.2,0.8*3B\r\n'
b'$GPGGA,161548.70,5057.2235126,N,00138.4864240,W,4,09,1.2,128.12,M,0.0,M,0.7,0050*5B\r\n'
b'$GPGGA,161548.80,5057.2235132,N,00138.4864246,W,4,09,1.2,128.12,M,0.0,M,0.8,0050*58\r\n'
b'$GPGGA,161548.90,5057.2235126,N,00138.4864240,W,4,09,1.2,128.12,M,0.0,M,0.9,0050*5B\r\n'
b'$GPGGA,161549.00,5057.2235126,N,00138.4864240,W,4,09,1.2,128.12,M,0.0,M,1.0,0050*5B\r\n'
b'$GPGGA,161549.10,5057.2235126,N,00138.4864270,W,4,09,1.2,128.12,M,0.0,M,0.1,0050*59\r\n'
b'$GPGGA,161549.20,5057.2235126,N,00138.4864276,W,4,09,1.2,128.11,M,0.0,M,0.2,0050*5C\r\n'
b'$GPGGA,161549.30,5057.2235126,N,00138.4864270,W,4,09,1.2,128.12,M,0.0,M,0.3,0050*59\r\n'
b'$GPGGA,161549.40,5057.2235126,N,00138.4864264,W,4,09,1.2,128.12,M,0.0,M,0.4,0050*5C\r\n'
b'$GPGGA,161549.50,5057.2235132,N,00138.4864276,W,4,09,1.2,128.12,M,0.0,M,0.5,0050*5A\r\n'
b'$GPGGA,161549.60,5057.2235120,N,00138.4864270,W,4,09,1.2,128.12,M,0.0,M,0.6,0050*5F\r\n'
b'$GPZDA,161549.60,11,08,2017,,*62\r\n'
b'$GPGSA,A,3,14,17,03,28,04,07,29,08,22,11,01,32,1.5,1.2,0.8*37\r\n'
b'$GPGGA,161549.70,5057.2235126,N,00138.4864270,W,4,09,1.2,128.12,M,0.0,M,0.7,0050*59\r\n'
b'$GPGGA,161549.80,5057.2235126,N,00138.4864276,W,4,09,1.2,128.12,M,0.0,M,0.8,0050*5F\r\n'
b'$GPGGA,161549.90,5057.2235126,N,00138.4864276,W,4,09,1.2,128.12,M,0.0,M,0.9,0050*5F\r\n'
b'$GPGGA,161550.00,5057.2235120,N,00138.4864282,W,4,09,1.2,128.12,M,0.0,M,1.0,0050*5B\r\n'
b'$GPGGA,161550.10,5057.2235120,N,00138.4864246,W,4,09,1.2,128.12,M,0.0,M,0.1,0050*52\r\n'
b'$GPGGA,161550.20,5057.2235126,N,00138.4864258,W,4,09,1.2,128.12,M,0.0,M,0.2,0050*5B\r\n'
b'$GPGGA,161550.30,5057.2235120,N,00138.4864246,W,4,09,1.2,128.12,M,0.0,M,0.3,0050*52\r\n'
b'$GPGGA,161550.40,5057.2235126,N,00138.4864252,W,4,09,1.2,128.12,M,0.0,M,0.4,0050*51\r\n'
b'$GPGGA,161550.50,5057.2235126,N,00138.4864252,W,4,09,1.2,128.12,M,0.0,M,0.5,0050*51\r\n'
b'$GPGGA,161550.60,5057.2235132,N,00138.4864258,W,4,09,1.2,128.12,M,0.0,M,0.6,0050*5E\r\n'
b'$GPZDA,161550.60,11,08,2017,,*6A\r\n'
b'$GPGSA,A,3,14,17,03,28,07,29,08,22,11,01,32,,1.5,1.2,0.8*33\r\n'
b'$GPGGA,161550.70,5057.2235132,N,00138.4864264,W,4,09,1.2,128.12,M,0.0,M,0.7,0050*51\r\n'
b'$GPGGA,161550.80,5057.2235126,N,00138.4864246,W,4,09,1.2,128.12,M,0.0,M,0.8,0050*54\r\n'
b'$GPGGA,161550.90,5057.2235126,N,00138.4864258,W,4,09,1.2,128.12,M,0.0,M,0.9,0050*5B\r\n'
b'$GPGGA,161551.00,5057.2235132,N,00138.4864258,W,4,09,1.2,128.12,M,0.0,M,1.0,0050*5E\r\n'
b'$GPGGA,161551.10,5057.2235132,N,00138.4864258,W,4,09,1.2,128.12,M,0.0,M,0.1,0050*5F\r\n'
b'$GPGGA,161551.20,5057.2235138,N,00138.4864264,W,4,09,1.2,128.12,M,0.0,M,0.2,0050*5A\r\n'
b'$GPGGA,161551.30,5057.2235138,N,00138.4864270,W,4,09,1.2,128.12,M,0.0,M,0.3,0050*5F\r\n'
b'$GPGGA,161551.40,5057.2235138,N,00138.4864264,W,4,09,1.2,128.12,M,0.0,M,0.4,0050*5A\r\n'
b'$GPGGA,161551.50,5057.2235138,N,00138.4864264,W,4,09,1.2,128.12,M,0.0,M,0.5,0050*5A\r\n'
b'$GPGGA,161551.60,5057.2235132,N,00138.4864264,W,4,09,1.2,128.12,M,0.0,M,0.6,0050*50\r\n'
b'$GPZDA,161551.60,11,08,2017,,*6B\r\n'
b'$GPGSA,A,3,14,17,03,28,07,29,08,22,11,01,32,,1.5,1.2,0.8*33\r\n'
b'$GPGGA,161551.70,5057.2235126,N,00138.4864252,W,4,09,1.2,128.12,M,0.0,M,0.7,0050*50\r\n'
b'$GPGGA,161551.80,5057.2235132,N,00138.4864252,W,4,09,1.2,128.12,M,0.0,M,0.8,0050*55\r\n'
b'$GPGGA,161551.90,5057.2235126,N,00138.4864252,W,4,09,1.2,128.12,M,0.0,M,0.9,0050*50\r\n'
b'$GPGGA,161552.00,5057.2235132,N,00138.4864270,W,4,09,1.2,128.12,M,0.0,M,1.0,0050*57\r\n'
b'$GPGGA,161552.10,5057.2235132,N,00138.4864258,W,4,09,1.2,128.12,M,0.0,M,0.1,0050*5C\r\n'
b'$GPGGA,161552.20,5057.2235138,N,00138.4864252,W,4,09,1.2,128.12,M,0.0,M,0.2,0050*5C\r\n'
b'$GPGGA,161552.30,5057.2235132,N,00138.4864270,W,4,09,1.2,128.12,M,0.0,M,0.3,0050*56\r\n'
b'$GPGGA,161552.40,5057.2235132,N,00138.4864264,W,4,09,1.2,128.12,M,0.0,M,0.4,0050*53\r\n'
b'$GPGGA,161552.50,5057.2235144,N,00138.4864264,W,4,09,1.2,128.12,M,0.0,M,0.5,0050*52\r\n'
b'$GPGGA,161552.60,5057.2235132,N,00138.4864270,W,4,09,1.2,128.12,M,0.0,M,0.6,0050*56\r\n'
b'$GPZDA,161552.60,11,08,2017,,*68\r\n'
b'$GPGSA,A,3,14,17,03,28,05,21,29,08,22,11,01,32,1.5,1.2,0.8*32\r\n'
b'$GPGGA,161552.70,5057.2235132,N,00138.4864270,W,4,09,1.2,128.12,M,0.0,M,0.7,0050*56\r\n'
b'$GPGGA,161552.80,5057.2235144,N,00138.4864276,W,4,09,1.2,128.12,M,0.0,M,0.8,0050*51\r\n'
b'$GPGGA,161552.90,5057.2235144,N,00138.4864282,W,4,09,1.2,128.12,M,0.0,M,0.9,0050*5A\r\n'
b'$GPGGA,161553.00,5057.2235138,N,00138.4864270,W,4,09,1.2,128.12,M,0.0,M,1.0,0050*5C\r\n'
b'$GPGGA,161553.10,5057.2235138,N,00138.4864270,W,4,09,1.2,128.11,M,0.0,M,0.1,0050*5E\r\n'
b'$GPGGA,161553.20,5057.2235138,N,00138.4864276,W,4,09,1.2,128.11,M,0.0,M,0.2,0050*58\r\n'
b'$GPGGA,161553.30,5057.2235138,N,00138.4864270,W,4,09,1.2,128.12,M,0.0,M,0.3,0050*5D\r\n'
b'$GPGGA,161553.40,5057.2235138,N,00138.4864276,W,4,09,1.2,128.12,M,0.0,M,0.4,0050*5B\r\n'
b'$GPGGA,161553.50,5057.2235144,N,00138.4864282,W,4,09,1.2,128.12,M,0.0,M,0.5,0050*5B\r\n'
b'$GPGGA,161553.60,5057.2235138,N,00138.4864282,W,4,09,1.2,128.12,M,0.0,M,0.6,0050*50\r\n'
b'$GPZDA,161553.60,11,08,2017,,*69\r\n'
b'$GPGSA,A,3,14,17,03,28,05,21,08,22,11,01,32,,1.5,1.2,0.8*39\r\n'
b'$GPGGA,161553.70,5057.2235138,N,00138.4864300,W,4,09,1.2,128.12,M,0.0,M,0.7,0050*5B\r\n'
b'$GPGGA,161553.80,5057.2235138,N,00138.4864288,W,4,09,1.2,128.12,M,0.0,M,0.8,0050*5A\r\n'
b'$GPGGA,161553.90,5057.2235138,N,00138.4864282,W,4,09,1.2,128.12,M,0.0,M,0.9,0050*50\r\n'
b'$GPGGA,161554.00,5057.2235138,N,00138.4864282,W,4,09,1.2,128.12,M,0.0,M,1.0,0050*56\r\n'
b'$GPGGA,161554.10,5057.2235138,N,00138.4864270,W,4,09,1.2,128.12,M,0.0,M,0.1,0050*5A\r\n'
b'$GPGGA,161554.20,5057.2235138,N,00138.4864276,W,4,09,1.2,128.12,M,0.0,M,0.2,0050*5C\r\n'
b'$GPGGA,161554.30,5057.2235138,N,00138.4864282,W,4,09,1.2,128.12,M,0.0,M,0.3,0050*57\r\n'
b'$GPGGA,161554.40,5057.2235144,N,00138.4864276,W,4,09,1.2,128.12,M,0.0,M,0.4,0050*57\r\n'
b'$GPGGA,161554.50,5057.2235138,N,00138.4864282,W,4,09,1.2,128.12,M,0.0,M,0.5,0050*57\r\n'
b'$GPGGA,161554.60,5057.2235156,N,00138.4864294,W,4,09,1.2,128.12,M,0.0,M,0.6,0050*58\r\n'
b'$GPZDA,161554.60,11,08,2017,,*6E\r\n'
b'$GPGSA,A,3,14,17,03,28,05,21,23,08,22,11,01,32,1.5,1.2,0.8*38\r\n'
b'$GPGGA,161554.70,5057.2235144,N,00138.4864282,W,4,09,1.2,128.12,M,0.0,M,0.7,0050*5C\r\n'
b'$GPGGA,161554.80,5057.2235150,N,00138.4864288,W,4,09,1.2,128.12,M,0.0,M,0.8,0050*53\r\n'
b'$GPGGA,161554.90,5057.2235150,N,00138.4864282,W,4,09,1.2,128.12,M,0.0,M,0.9,0050*59\r\n'
b'$GPGGA,161555.00,5057.2235150,N,00138.4864288,W,4,09,1.2,128.12,M,0.0,M,1.0,0050*53\r\n'
b'$GPGGA,161555.10,5057.2235144,N,00138.4864282,W,4,09,1.2,128.11,M,0.0,M,0.1,0050*5E\r\n'
b'$GPGGA,161555.20,5057.2235156,N,00138.4864288,W,4,09,1.2,128.11,M,0.0,M,0.2,0050*57\r\n'
b'$GPGGA,161555.30,5057.2235156,N,00138.4864294,W,4,09,1.2,128.11,M,0.0,M,0.3,0050*5A\r\n'
b'$GPGGA,161555.40,5057.2235150,N,00138.4864294,W,4,09,1.2,128.11,M,0.0,M,0.4,0050*5C\r\n'
b'$GPGGA,161555.50,5057.2235162,N,00138.4864294,W,4,09,1.2,128.11,M,0.0,M,0.5,0050*5D\r\n'
b'$GPGGA,161555.60,5057.2235162,N,00138.4864300,W,4,09,1.2,128.11,M,0.0,M,0.6,0050*51\r\n'
b'$GPZDA,161555.60,11,08,2017,,*6F\r\n'
b'$GPGSA,A,3,14,17,03,28,21,23,08,22,11,01,32,02,1.5,1.2,0.8*3F\r\n'
b'$GPGGA,161555.70,5057.2235162,N,00138.4864300,W,4,09,1.2,128.11,M,0.0,M,0.7,0050*51\r\n'
b'$GPGGA,161555.80,5057.2235156,N,00138.4864294,W,4,09,1.2,128.11,M,0.0,M,0.8,0050*5A\r\n'
b'$GPGGA,161555.90,5057.2235156,N,00138.4864294,W,4,09,1.2,128.11,M,0.0,M,0.9,0050*5A\r\n'
b'$GPGGA,161556.00,5057.2235156,N,00138.4864300,W,4,09,1.2,128.11,M,0.0,M,1.0,0050*54\r\n'
b'$GPGGA,161556.10,5057.2235150,N,00138.4864288,W,4,09,1.2,128.11,M,0.0,M,0.1,0050*52\r\n'
b'$GPGGA,161556.20,5057.2235150,N,00138.4864288,W,4,09,1.2,128.11,M,0.0,M,0.2,0050*52\r\n'
b'$GPGGA,161556.30,5057.2235150,N,00138.4864300,W,4,09,1.2,128.11,M,0.0,M,0.3,0050*53\r\n'
b'$GPGGA,161556.40,5057.2235156,N,00138.4864300,W,4,09,1.2,128.11,M,0.0,M,0.4,0050*55\r\n'
b'$GPGGA,161556.50,5057.2235150,N,00138.4864294,W,4,09,1.2,128.11,M,0.0,M,0.5,0050*5F\r\n'
b'$GPGGA,161556.60,5057.2235150,N,00138.4864300,W,4,09,1.2,128.11,M,0.0,M,0.6,0050*53\r\n'
b'$GPZDA,161556.60,11,08,2017,,*6C\r\n'
b'$GPGSA,A,3,14,17,03,28,23,08,22,11,01,32,02,,1.5,1.2,0.8*3C\r\n'
b'$GPGGA,161556.70,5057.2235144,N,00138.4864300,W,4,09,1.2,128.11,M,0.0,M,0.7,0050*56\r\n'
b'$GPGGA,161556.80,5057.2235144,N,00138.4864294,W,4,09,1.2,128.11,M,0.0,M,0.8,0050*5A\r\n'
b'$GPGGA,161556.90,5057.2235144,N,00138.4864306,W,4,09,1.2,128.11,M,0.0,M,0.9,0050*50\r\n'
b'$GPGGA,161557.00,5057.2235150,N,00138.4864306,W,4,09,1.2,128.11,M,0.0,M,1.0,0050*55\r\n'
b'$GPGGA,161557.10,5057.2235156,N,00138.4864312,W,4,09,1.2,128.11,M,0.0,M,0.1,0050*57\r\n'
b'$GPGGA,161557.20,5057.2235150,N,00138.4864300,W,4,09,1.2,128.11,M,0.0,M,0.2,0050*52\r\n'
b'$GPGGA,161557.30,5057.2235156,N,00138.4864318,W,4,09,1.2,128.11,M,0.0,M,0.3,0050*5D\r\n'
b'$GPGGA,161557.40,5057.2235156,N,00138.4864318,W,4,09,1.2,128.11,M,0.0,M,0.4,0050*5D\r\n'
b'$GPGGA,161557.50,5057.2235162,N,00138.4864324,W,4,09,1.2,128.11,M,0.0,M,0.5,0050*55\r\n'
b'$GPGGA,161557.60,5057.2235162,N,00138.4864324,W,4,09,1.2,128.11,M,0.0,M,0.6,0050*55\r\n'
b'$GPZDA,161557.60,11,08,2017,,*6D\r\n'
b'$GPGSA,A,3,14,17,03,28,24,23,08,22,11,01,32,02,1.5,1.2,0.8*3A\r\n'
b'$GPGGA,161557.70,5057.2235156,N,00138.4864312,W,4,09,1.2,128.11,M,0.0,M,0.7,0050*57\r\n'
b'$GPGGA,161557.80,5057.2235156,N,00138.4864318,W,4,09,1.2,128.11,M,0.0,M,0.8,0050*5D\r\n'
b'$GPGGA,161557.90,5057.2235156,N,00138.4864318,W,4,09,1.2,128.11,M,0.0,M,0.9,0050*5D\r\n'
b'$GPGGA,161558.00,5057.2235156,N,00138.4864318,W,4,09,1.2,128.11,M,0.0,M,1.0,0050*53\r\n'
b'$GPGGA,161558.10,5057.2235150,N,00138.4864282,W,4,09,1.2,128.12,M,0.0,M,0.1,0050*55\r\n'
b'$GPGGA,161558.20,5057.2235156,N,00138.4864306,W,4,09,1.2,128.12,M,0.0,M,0.2,0050*5E\r\n'
b'$GPGGA,161558.30,5057.2235156,N,00138.4864300,W,4,09,1.2,128.11,M,0.0,M,0.3,0050*5B\r\n'
b'$GPGGA,161558.40,5057.2235162,N,00138.4864300,W,4,09,1.2,128.12,M,0.0,M,0.4,0050*5F\r\n'
b'$GPGGA,161558.50,5057.2235156,N,00138.4864294,W,4,09,1.2,128.12,M,0.0,M,0.5,0050*54\r\n'
b'$GPGGA,161558.60,5057.2235168,N,00138.4864300,W,4,09,1.2,128.12,M,0.0,M,0.6,0050*55\r\n'
b'$GPZDA,161558.60,11,08,2017,,*62\r\n'
b'$GPGSA,A,3,14,17,03,28,24,19,08,22,11,01,32,,1.5,1.2,0.8*31\r\n'
b'$GPGGA,161558.70,5057.2235156,N,00138.4864306,W,4,09,1.2,128.12,M,0.0,M,0.7,0050*5E\r\n'
b'$GPGGA,161558.80,5057.2235162,N,00138.4864300,W,4,09,1.2,128.12,M,0.0,M,0.8,0050*5F\r\n'
b'$GPGGA,161558.90,5057.2235156,N,00138.4864306,W,4,09,1.2,128.12,M,0.0,M,0.9,0050*5E\r\n'
b'$GPGGA,161559.00,5057.2235156,N,00138.4864312,W,4,09,1.2,128.12,M,0.0,M,1.0,0050*5B\r\n'
b'$GPGGA,161559.10,5057.2235150,N,00138.4864276,W,4,09,1.2,128.11,M,0.0,M,0.1,0050*5C\r\n'
b'$GPGGA,161559.20,5057.2235144,N,00138.4864276,W,4,09,1.2,128.12,M,0.0,M,0.2,0050*5A\r\n'
b'$GPGGA,161559.30,5057.2235156,N,00138.4864282,W,4,09,1.2,128.12,M,0.0,M,0.3,0050*52\r\n'
b'$GPGGA,161559.40,5057.2235150,N,00138.4864294,W,4,09,1.2,128.12,M,0.0,M,0.4,0050*53\r\n'
b'$GPGGA,161559.50,5057.2235162,N,00138.4864294,W,4,09,1.2,128.12,M,0.0,M,0.5,0050*52\r\n'
b'$GPGGA,161559.60,5057.2235156,N,00138.4864294,W,4,09,1.2,128.12,M,0.0,M,0.6,0050*55\r\n'
b'$GPZDA,161559.60,11,08,2017,,*63\r\n'
b'$GPGSA,A,3,14,17,03,28,24,19,08,22,11,01,32,,1.5,1.2,0.8*31\r\n'
b'$GPGGA,161559.70,5057.2235156,N,00138.4864294,W,4,09,1.2,128.12,M,0.0,M,0.7,0050*55\r\n'
b'$GPGGA,161559.80,5057.2235156,N,00138.4864300,W,4,09,1.2,128.12,M,0.0,M,0.8,0050*59\r\n'
b'$GPGGA,161559.90,5057.2235150,N,00138.4864300,W,4,09,1.2,128.12,M,0.0,M,0.9,0050*5F\r\n'
b'$GPGGA,161600.00,5057.2235144,N,00138.4864294,W,4,09,1.2,128.12,M,0.0,M,1.0,0050*58\r\n'
b'$GPGGA,161600.10,5057.2235156,N,00138.4864294,W,4,09,1.2,128.11,M,0.0,M,0.1,0050*59\r\n'
b'$GPGGA,161600.20,5057.2235138,N,00138.4864294,W,4,09,1.2,128.11,M,0.0,M,0.2,0050*51\r\n'
b'$GPGGA,161600.30,5057.2235138,N,00138.4864288,W,4,09,1.2,128.11,M,0.0,M,0.3,0050*5C\r\n'
b'$GPGGA,161600.40,5057.2235150,N,00138.4864294,W,4,09,1.2,128.11,M,0.0,M,0.4,0050*5F\r\n'
b'$GPGGA,161600.50,5057.2235150,N,00138.4864306,W,4,09,1.2,128.11,M,0.0,M,0.5,0050*55\r\n'
b'$GPGGA,161600.60,5057.2235144,N,00138.4864300,W,4,09,1.2,128.11,M,0.0,M,0.6,0050*56\r\n'
b'$GPZDA,161600.60,11,08,2017,,*6C\r\n'
b'$GPGSA,A,3,14,17,03,28,26,19,12,08,22,11,01,32,1.5,1.2,0.8*30\r\n'
b'$GPGGA,161600.70,5057.2235150,N,00138.4864300,W,4,09,1.2,128.12,M,0.0,M,0.7,0050*50\r\n'
b'$GPGGA,161600.80,5057.2235150,N,00138.4864306,W,4,09,1.2,128.12,M,0.0,M,0.8,0050*56\r\n'
b'$GPGGA,161600.90,5057.2235156,N,00138.4864312,W,4,09,1.2,128.11,M,0.0,M,0.9,0050*56\r\n'
b'$GPGGA,161601.00,5057.2235150,N,00138.4864300,W,4,09,1.2,128.12,M,0.0,M,1.0,0050*50\r\n'
b'$GPGGA,161601.10,5057.2235156,N,00138.4864288,W,4,09,1.2,128.12,M,0.0,M,0.1,0050*56\r\n'
b'$GPGGA,161601.20,5057.2235156,N,00138.4864288,W,4,09,1.2,128.12,M,0.0,M,0.2,0050*56\r\n'
b'$GPGGA,161601.30,5057.2235156,N,00138.4864288,W,4,09,1.2,128.12,M,0.0,M,0.3,0050*56\r\n'
b'$GPGGA,161601.40,5057.2235156,N,00138.4864288,W,4,09,1.2,128.12,M,0.0,M,0.4,0050*56\r\n'
b'$GPGGA,161601.50,5057.2235156,N,00138.4864288,W,4,09,1.2,128.12,M,0.0,M,0.5,0050*56\r\n'
b'$GPGGA,161601.60,5057.2235162,N,00138.4864294,W,4,09,1.2,128.12,M,0.0,M,0.6,0050*5C\r\n'
b'$GPZDA,161601.60,11,08,2017,,*6D\r\n'
b'$GPGSA,A,3,14,17,03,28,26,12,08,22,11,01,32,,1.5,1.2,0.8*38\r\n'
b'$GPGGA,161601.70,5057.2235156,N,00138.4864288,W,4,09,1.2,128.12,M,0.0,M,0.7,0050*56\r\n'
b'$GPGGA,161601.80,5057.2235150,N,00138.4864288,W,4,09,1.2,128.12,M,0.0,M,0.8,0050*50\r\n'
b'$GPGGA,161601.90,5057.2235150,N,00138.4864282,W,4,09,1.2,128.12,M,0.0,M,0.9,0050*5A\r\n'
b'$GPGGA,161602.00,5057.2235156,N,00138.4864294,W,4,09,1.2,128.12,M,0.0,M,1.0,0050*59\r\n'
b'$GPGGA,161602.10,5057.2235162,N,00138.4864300,W,4,09,1.2,128.11,M,0.0,M,0.1,0050*50\r\n'
b'$GPGGA,161602.20,5057.2235168,N,00138.4864306,W,4,09,1.2,128.11,M,0.0,M,0.2,0050*5C\r\n'
b'$GPGGA,161602.30,5057.2235162,N,00138.4864300,W,4,09,1.2,128.11,M,0.0,M,0.3,0050*50\r\n'
b'$GPGGA,161602.40,5057.2235162,N,00138.4864312,W,4,09,1.2,128.11,M,0.0,M,0.4,0050*53\r\n'
b'$GPGGA,161602.50,5057.2235168,N,00138.4864306,W,4,09,1.2,128.11,M,0.0,M,0.5,0050*5C\r\n'
b'$GPGGA,161602.60,5057.2235156,N,00138.4864306,W,4,09,1.2,128.12,M,0.0,M,0.6,0050*52\r\n'
b'$GPZDA,161602.60,11,08,2017,,*6E\r\n'
b'$GPGSA,A,3,14,17,03,28,26,18,12,08,22,11,01,32,1.5,1.2,0.8*31\r\n'
b'$GPGGA,161602.70,5057.2235168,N,00138.4864312,W,4,09,1.2,128.11,M,0.0,M,0.7,0050*59\r\n'
b'$GPGGA,161602.80,5057.2235168,N,00138.4864318,W,4,09,1.2,128.11,M,0.0,M,0.8,0050*53\r\n'
b'$GPGGA,161602.90,5057.2235174,N,00138.4864324,W,4,09,1.2,128.11,M,0.0,M,0.9,0050*51\r\n'
b'$GPGGA,161603.00,5057.2235168,N,00138.4864318,W,4,09,1.2,128.11,M,0.0,M,1.0,0050*53\r\n'
b'$GPGGA,161603.10,5057.2235156,N,00138.4864294,W,4,09,1.2,128.11,M,0.0,M,0.1,0050*5A\r\n'
b'$GPGGA,161603.20,5057.2235156,N,00138.4864294,W,4,09,1.2,128.11,M,0.0,M,0.2,0050*5A\r\n'
b'$GPGGA,161603.30,5057.2235156,N,00138.4864288,W,4,09,1.2,128.11,M,0.0,M,0.3,0050*57\r\n'
b'$GPGGA,161603.40,5057.2235156,N,00138.4864294,W,4,09,1.2,128.12,M,0.0,M,0.4,0050*59\r\n'
b'$GPGGA,161603.50,5057.2235162,N,00138.4864288,W,4,09,1.2,128.11,M,0.0,M,0.5,0050*50\r\n'
b'$GPGGA,161603.60,5057.2235150,N,00138.4864288,W,4,09,1.2,128.12,M,0.0,M,0.6,0050*52\r\n'
b'$GPZDA,161603.60,11,08,2017,,*6F\r\n'
b'$GPGSA,A,3,14,17,03,28,26,18,08,22,11,01,32,,1.5,1.2,0.8*32\r\n'
b'$GPGGA,161603.70,5057.2235150,N,00138.4864294,W,4,09,1.2,128.11,M,0.0,M,0.7,0050*5C\r\n'
b'$GPGGA,161603.80,5057.2235150,N,00138.4864282,W,4,09,1.2,128.12,M,0.0,M,0.8,0050*58\r\n'
b'$GPGGA,161603.90,5057.2235150,N,00138.4864282,W,4,09,1.2,128.12,M,0.0,M,0.9,0050*58\r\n'
b'$GPGGA,161604.00,5057.2235150,N,00138.4864288,W,4,09,1.2,128.12,M,0.0,M,1.0,0050*54\r\n'
b'$GPGGA,161604.10,5057.2235156,N,00138.4864288,W,4,09,1.2,128.11,M,0.0,M,0.1,0050*50\r\n'
b'$GPGGA,161604.20,5057.2235162,N,00138.4864294,W,4,09,1.2,128.12,M,0.0,M,0.2,0050*59\r\n'
b'$GPGGA,161604.30,5057.2235156,N,00138.4864288,W,4,09,1.2,128.12,M,0.0,M,0.3,0050*53\r\n'
b'$GPGGA,161604.40,5057.2235156,N,00138.4864294,W,4,09,1.2,128.12,M,0.0,M,0.4,0050*5E\r\n'
b'$GPGGA,161604.50,5057.2235162,N,00138.4864294,W,4,09,1.2,128.12,M,0.0,M,0.5,0050*59\r\n'
b'$GPGGA,161604.60,5057.2235156,N,00138.4864300,W,4,09,1.2,128.12,M,0.0,M,0.6,0050*52\r\n'
b'$GPZDA,161604.60,11,08,2017,,*68\r\n'
b'$GPGSA,A,3,14,17,03,28,06,18,08,22,11,01,32,,1.5,1.2,0.8*30\r\n'
b'$GPGGA,161604.70,5057.2235162,N,00138.4864300,W,4,09,1.2,128.12,M,0.0,M,0.7,0050*55\r\n'
b'$GPGGA,161604.80,5057.2235162,N,00138.4864294,W,4,09,1.2,128.12,M,0.0,M,0.8,0050*59\r\n'
b'$GPGGA,161604.90,5057.2235162,N,00138.4864306,W,4,09,1.2,128.12,M,0.0,M,0.9,0050*53\r\n'
b'$GPGGA,161605.00,5057.2235162,N,00138.4864306,W,4,09,1.2,128.12,M,0.0,M,1.0,0050*53\r\n'
b'$GPGGA,161605.10,5057.2235156,N,00138.4864294,W,4,09,1.2,128.11,M,0.0,M,0.1,0050*5C\r\n'
b'$GPGGA,161605.20,5057.2235168,N,00138.4864300,W,4,09,1.2,128.11,M,0.0,M,0.2,0050*5D\r\n'
b'$GPGGA,161605.30,5057.2235174,N,00138.4864300,W,4,09,1.2,128.11,M,0.0,M,0.3,0050*50\r\n'
b'$GPGGA,161605.40,5057.2235162,N,00138.4864294,W,4,09,1.2,128.11,M,0.0,M,0.4,0050*5B\r\n'
b'$GPGGA,161605.50,5057.2235168,N,00138.4864306,W,4,09,1.2,128.11,M,0.0,M,0.5,0050*5B\r\n'
b'$GPGGA,161605.60,5057.2235174,N,00138.4864300,W,4,09,1.2,128.11,M,0.0,M,0.6,0050*50\r\n'
